Timestamp,Message Type,Voltage (V),Current (A),Remaining (%),Servo1 Output,Servo2 Output,Servo8 Output,Servo4 Output,Altitude (m),Roll,Pitch,Yaw,Yaw Rate (rad/s),Acceleration Z (m/s^2),Local X (m),Local Y (m),Local Z (m),Vibration X,Vibration Y,Vibration Z,ESC Info
1771017858.09688,ATTITUDE,,,,,,,,,0.0019676012452691793,-0.026218362152576447,0.19099868834018707,-0.0012198074255138636,,,,,,,,
1771017858.2370226,ATTITUDE,,,,,,,,,0.0019477859605103731,-0.026080315932631493,0.19054517149925232,0.0008272428531199694,,,,,,,,
1771017858.4959064,ATTITUDE,,,,,,,,,0.001829652115702629,-0.02600867673754692,0.19025518000125885,0.00012570788385346532,,,,,,,,
1771017858.6928728,ATTITUDE,,,,,,,,,0.001714498270303011,-0.025916440412402153,0.19003142416477203,-0.0001679621054790914,,,,,,,,
1771017858.884886,ALTITUDE,,,,,,,,597.769287109375,,,,,,,,,,,,
1771017858.9093673,LOCAL_POSITION_NED,,,,,,,,,,,,,,7.086019515991211,11.028554916381836,-0.08743558824062347,,,,
1771017858.939872,SERVO_OUTPUT_RAW,,,,0,0,0,0,,,,,,,,,,,,,
1771017859.0111916,ATTITUDE,,,,,,,,,0.0017054268391802907,-0.025880221277475357,0.1895928531885147,-9.186399984173477e-05,,,,,,,,
1771017859.1912231,ATTITUDE,,,,,,,,,0.0016283560544252396,-0.02587141841650009,0.18922287225723267,0.0015785580035299063,,,,,,,,
1771017859.2556665,BATTERY_STATUS,11.573,0.0,62,,,,,,,,,,,,,,,,,
1771017859.4611185,ATTITUDE,,,,,,,,,0.0016201728722080588,-0.025808170437812805,0.18872928619384766,0.0006099747261032462,,,,,,,,
1771017859.6568632,ATTITUDE,,,,,,,,,0.0015459861606359482,-0.025717195123434067,0.18801183998584747,0.0013860240578651428,,,,,,,,
1771017859.9029474,ATTITUDE,,,,,,,,,0.0014970146585255861,-0.025668296962976456,0.1871885508298874,0.00023561701527796686,,,,,,,,
1771017860.0953202,ATTITUDE,,,,,,,,,0.0014541669515892863,-0.02561754360795021,0.1863381266593933,0.0002470462932251394,,,,,,,,
1771017860.363846,ATTITUDE,,,,,,,,,0.0014390659052878618,-0.025605130940675735,0.18550081551074982,-5.690768011845648e-05,,,,,,,,
1771017860.5569682,ATTITUDE,,,,,,,,,0.0014624686446040869,-0.02555188722908497,0.18458689749240875,0.00010866970114875585,,,,,,,,
1771017860.8078609,ATTITUDE,,,,,,,,,0.001472948701120913,-0.025489265099167824,0.18367400765419006,-0.000915611395612359,,,,,,,,
1771017861.0235317,ATTITUDE,,,,,,,,,0.0013716825051233172,-0.025408543646335602,0.18301300704479218,0.00014138502592686564,,,,,,,,
1771017861.3072667,ATTITUDE,,,,,,,,,0.001390816061757505,-0.02542649582028389,0.18230462074279785,-0.0009941277094185352,,,,,,,,
1771017861.3192558,VIBRATION,,,,,,,,,,,,,,,,,5.538435335350478e-11,0.0024210605770349503,0.03112114779651165,
1771017861.4999144,ATTITUDE,,,,,,,,,0.0014374552993103862,-0.02534237690269947,0.18176999688148499,0.00020129862241446972,,,,,,,,
1771017861.7433567,ATTITUDE,,,,,,,,,0.001413838006556034,-0.025251630693674088,0.1813689023256302,7.896281022112817e-05,,,,,,,,
1771017861.97283,ATTITUDE,,,,,,,,,0.0013560140505433083,-0.025118352845311165,0.1810074895620346,0.0006521055474877357,,,,,,,,
1771017862.2084093,ATTITUDE,,,,,,,,,0.0013662786222994328,-0.025062521919608116,0.1806255728006363,0.0001470109127694741,,,,,,,,
1771017862.394759,ALTITUDE,,,,,,,,598.47216796875,,,,,,,,,,,,
1771017862.4189398,LOCAL_POSITION_NED,,,,,,,,,,,,,,7.084647178649902,11.027251243591309,-0.20375889539718628,,,,
1771017862.4428387,SERVO_OUTPUT_RAW,,,,0,0,0,0,,,,,,,,,,,,,
1771017862.4963205,ATTITUDE,,,,,,,,,0.0013689910992980003,-0.024903791025280952,0.18028807640075684,-0.00045291957212612033,,,,,,,,
1771017862.6786659,ATTITUDE,,,,,,,,,0.001323200180195272,-0.02486514300107956,0.18000638484954834,-0.0001940591901075095,,,,,,,,
1771017862.8892643,ATTITUDE,,,,,,,,,0.0012505444465205073,-0.024776164442300797,0.17988519370555878,6.419718556571752e-05,,,,,,,,
1771017863.1471138,ATTITUDE,,,,,,,,,0.0011850320734083652,-0.0247364304959774,0.1795923411846161,-0.0046775685623288155,,,,,,,,
1771017863.3328133,ATTITUDE,,,,,,,,,0.0010888081742450595,-0.023100467398762703,0.1789417713880539,-0.004656389355659485,,,,,,,,
1771017863.6698515,ATTITUDE,,,,,,,,,0.0010977654019370675,-0.022064583376049995,0.17878425121307373,0.03900432959198952,,,,,,,,
1771017863.857264,ATTITUDE,,,,,,,,,0.0010536124464124441,-0.021876445040106773,0.17875301837921143,0.027605615556240082,,,,,,,,
1771017864.1143835,ATTITUDE,,,,,,,,,0.0011194641701877117,-0.02189577743411064,0.17890651524066925,-0.019050661474466324,,,,,,,,
1771017864.2945914,ATTITUDE,,,,,,,,,0.0009860479040071368,-0.02176738902926445,0.17944851517677307,0.02876490354537964,,,,,,,,
1771017864.4984093,ATTITUDE,,,,,,,,,0.0009485661867074668,-0.018065910786390305,0.1794329434633255,0.0011868465226143599,,,,,,,,
1771017864.783795,ATTITUDE,,,,,,,,,6.949788803467527e-05,-0.010640157386660576,0.1837591975927353,0.02591335028409958,,,,,,,,
1771017864.9478,ATTITUDE,,,,,,,,,-0.0008293186547234654,-0.005699391011148691,0.20185084640979767,0.06735312938690186,,,,,,,,
1771017865.2443495,ATTITUDE,,,,,,,,,0.0019309951458126307,-0.001319386763498187,0.21106141805648804,0.034577783197164536,,,,,,,,
1771017865.4549005,ATTITUDE,,,,,,,,,0.0009321266552433372,0.00028008627123199403,0.21302957832813263,-0.005443778820335865,,,,,,,,
1771017865.687875,ATTITUDE,,,,,,,,,-0.001772513845935464,0.0012574399588629603,0.21798495948314667,0.08658286929130554,,,,,,,,
1771017865.83183,ALTITUDE,,,,,,,,598.3796997070312,,,,,,,,,,,,
1771017865.8613615,LOCAL_POSITION_NED,,,,,,,,,,,,,,7.149770259857178,11.025879859924316,-0.5138819217681885,,,,
1771017865.885361,SERVO_OUTPUT_RAW,,,,1079,797,590,958,,,,,,,,,,,,,
1771017865.9337752,ATTITUDE,,,,,,,,,-0.0051772985607385635,0.001203089370392263,0.2337951362133026,0.15260449051856995,,,,,,,,
1771017866.1917272,ATTITUDE,,,,,,,,,-0.0021024681627750397,-0.0002727358660195023,0.2533116042613983,0.09140821546316147,,,,,,,,
1771017866.2037778,BATTERY_STATUS,11.329,1.45,58,,,,,,,,,,,,,,,,,
1771017866.3614225,ATTITUDE,,,,,,,,,-0.002880818210542202,0.003922597970813513,0.2839750051498413,0.08826038241386414,,,,,,,,
1771017866.6067858,ATTITUDE,,,,,,,,,-0.0026814534794539213,0.0038953472394496202,0.3239469528198242,0.14796212315559387,,,,,,,,
1771017866.803764,ATTITUDE,,,,,,,,,0.0020592024084180593,0.0028162237722426653,0.38491350412368774,0.3158777058124542,,,,,,,,
1771017867.100762,ATTITUDE,,,,,,,,,-0.0037168001290410757,0.00262871733866632,0.4672473669052124,0.3689992129802704,,,,,,,,
1771017867.27181,ATTITUDE,,,,,,,,,-0.001005150843411684,0.0012731931637972593,0.5683412551879883,0.48613256216049194,,,,,,,,
1771017867.567471,ATTITUDE,,,,,,,,,0.0002008288720389828,0.0021107010543346405,0.7034050226211548,0.5533637404441833,,,,,,,,
1771017867.7524629,ATTITUDE,,,,,,,,,0.002475564833730459,0.00011831336450995877,0.8466538190841675,0.6785463094711304,,,,,,,,
1771017868.0317502,ATTITUDE,,,,,,,,,0.0028497062157839537,-0.00014540743723046035,1.0303899049758911,0.8926497101783752,,,,,,,,
1771017868.211746,ATTITUDE,,,,,,,,,0.00287741981446743,0.0049737892113626,1.2859647274017334,1.3410708904266357,,,,,,,,
1771017868.502755,ATTITUDE,,,,,,,,,-0.00030935410177335143,0.005701860412955284,1.6541537046432495,1.805823564529419,,,,,,,,
1771017868.6949966,ATTITUDE,,,,,,,,,-0.002106350613757968,-0.003013519337400794,2.128823757171631,2.138537645339966,,,,,,,,
1771017868.9764268,ATTITUDE,,,,,,,,,0.0024295991752296686,-0.0003063510521315038,2.6615819931030273,2.417874574661255,,,,,,,,
1771017869.1567385,ATTITUDE,,,,,,,,,-0.0005716986488550901,-0.0008007412543520331,-3.0368471145629883,2.736086845397949,,,,,,,,
1771017869.2847369,ALTITUDE,,,,,,,,599.0217895507812,,,,,,,,,,,,
1771017869.31475,LOCAL_POSITION_NED,,,,,,,,,,,,,,7.2616682052612305,10.862302780151367,-1.591667652130127,,,,
1771017869.3380556,SERVO_OUTPUT_RAW,,,,109,1631,1598,115,,,,,,,,,,,,,
1771017869.4390821,ATTITUDE,,,,,,,,,-0.00014728486712556332,-0.001927430392242968,-2.38014554977417,2.9689183235168457,,,,,,,,
1771017869.6234708,ATTITUDE,,,,,,,,,0.0005895694484934211,-0.000608515867497772,-1.6971179246902466,3.040370464324951,,,,,,,,
1771017869.8858058,ATTITUDE,,,,,,,,,-0.0009681147057563066,-0.0008268913952633739,-0.9382584095001221,3.191392421722412,,,,,,,,
1771017870.0918744,ATTITUDE,,,,,,,,,-0.0032934490591287613,-0.0012233852175995708,-0.19487744569778442,3.338576078414917,,,,,,,,
1771017870.3815804,ATTITUDE,,,,,,,,,-0.0016412390395998955,0.001404037233442068,0.5967034697532654,3.435384511947632,,,,,,,,
1771017870.5617192,ATTITUDE,,,,,,,,,0.0012812621425837278,-0.0017918727826327085,1.3920869827270508,3.5393881797790527,,,,,,,,
1771017870.783447,ATTITUDE,,,,,,,,,0.0014006660785526037,0.004524769261479378,2.210606336593628,3.5280840396881104,,,,,,,,
1771017871.0013125,ATTITUDE,,,,,,,,,0.0022322693839669228,-0.00028924026992172003,3.0321104526519775,3.332155227661133,,,,,,,,
1771017871.2408,ATTITUDE,,,,,,,,,0.014872117899358273,-7.115545304259285e-05,-2.576019048690796,2.548356533050537,,,,,,,,
1771017871.5096717,ATTITUDE,,,,,,,,,-0.004177338909357786,-0.005881235934793949,-2.043478012084961,1.9410901069641113,,,,,,,,
1771017871.69857,ATTITUDE,,,,,,,,,-0.0004102550446987152,-0.00225403206422925,-1.6509077548980713,1.398641586303711,,,,,,,,
1771017871.9627736,ATTITUDE,,,,,,,,,0.0029398929327726364,0.0021408521570265293,-1.3934144973754883,0.9039329290390015,,,,,,,,
1771017872.154335,ATTITUDE,,,,,,,,,0.006101053208112717,0.0026441807858645916,-1.2079167366027832,0.6811365485191345,,,,,,,,
1771017872.4104197,ATTITUDE,,,,,,,,,0.002258777618408203,0.00012270869046915323,-1.0908293724060059,0.44539695978164673,,,,,,,,
1771017872.64469,ATTITUDE,,,,,,,,,0.0061181699857115746,0.0019135212060064077,-1.0203055143356323,0.17572510242462158,,,,,,,,
1771017872.7207067,ALTITUDE,,,,,,,,598.8394165039062,,,,,,,,,,,,
1771017872.7445142,LOCAL_POSITION_NED,,,,,,,,,,,,,,7.969536304473877,10.820915222167969,-0.5292829275131226,,,,
1771017872.8207445,SERVO_OUTPUT_RAW,,,,1435,151,109,1474,,,,,,,,,,,,,
1771017872.8861156,ATTITUDE,,,,,,,,,0.0014166786568239331,0.002161978743970394,-0.9938256740570068,0.0006505130440928042,,,,,,,,
1771017873.08369,ATTITUDE,,,,,,,,,0.004132745321840048,0.0022185673005878925,-1.005413293838501,-0.13099780678749084,,,,,,,,
1771017873.1536891,BATTERY_STATUS,11.111,5.86,48,,,,,,,,,,,,,,,,,
1771017873.357688,ATTITUDE,,,,,,,,,-0.001550777698867023,0.0016185223357751966,-1.046994924545288,-0.21615895628929138,,,,,,,,
1771017873.5506828,ATTITUDE,,,,,,,,,0.03640520200133324,0.06501072645187378,-1.1093082427978516,-0.26277872920036316,,,,,,,,
1771017873.8356795,ATTITUDE,,,,,,,,,-0.01882157474756241,0.010310959070920944,-1.1717740297317505,-0.2441004514694214,,,,,,,,
1771017874.038856,ATTITUDE,,,,,,,,,0.01126483827829361,0.005897269118577242,-1.2588304281234741,-0.47418180108070374,,,,,,,,
1771017874.3133998,ATTITUDE,,,,,,,,,-0.035337530076503754,-0.016764376312494278,-1.3533085584640503,-0.2856338322162628,,,,,,,,
1771017874.5049763,ATTITUDE,,,,,,,,,-0.011900260113179684,-0.009499043226242065,-1.4144366979599,0.02155565842986107,,,,,,,,
1771017874.743677,ATTITUDE,,,,,,,,,-6.891919474583119e-05,-0.015958907082676888,-1.4822356700897217,-0.26346346735954285,,,,,,,,
1771017874.9846597,ATTITUDE,,,,,,,,,-0.0032827751711010933,-0.002554340288043022,-1.5589652061462402,-0.36431294679641724,,,,,,,,
1771017875.2181134,ATTITUDE,,,,,,,,,-0.0030989013612270355,-0.0011904947459697723,-1.6574664115905762,-0.46592867374420166,,,,,,,,
1771017875.4497027,ATTITUDE,,,,,,,,,0.022524714469909668,0.014649068005383015,-1.767978549003601,-0.5387324690818787,,,,,,,,
1771017875.6996744,ATTITUDE,,,,,,,,,-0.013455524109303951,0.00083651312161237,-1.8840707540512085,-0.5136893391609192,,,,,,,,
1771017875.8756566,ATTITUDE,,,,,,,,,0.03604040667414665,0.02528403513133526,-2.005885124206543,-0.49273690581321716,,,,,,,,
1771017876.1771264,ATTITUDE,,,,,,,,,-0.010353907011449337,-0.003561254357919097,-2.1263070106506348,-0.5992801189422607,,,,,,,,
1771017876.3052227,ALTITUDE,,,,,,,,598.14453125,,,,,,,,,,,,
1771017876.3352191,LOCAL_POSITION_NED,,,,,,,,,,,,,,9.377301216125488,12.043085098266602,3.242546558380127,,,,
1771017876.3592184,SERVO_OUTPUT_RAW,,,,1341,149,109,1383,,,,,,,,,,,,,
1771017876.4070938,ATTITUDE,,,,,,,,,-0.0009952064137905836,0.0031041696202009916,-2.267892599105835,-0.5999509692192078,,,,,,,,
1771017876.587138,ATTITUDE,,,,,,,,,0.003788673784583807,-0.004488356877118349,-2.422982692718506,-0.7318165898323059,,,,,,,,
1771017876.8312461,ATTITUDE,,,,,,,,,-0.0005939034163020551,0.002200070768594742,-2.6025583744049072,-0.7861395478248596,,,,,,,,
1771017877.0535383,ATTITUDE,,,,,,,,,0.001974340295419097,0.001331379055045545,-2.7938220500946045,-0.8360189199447632,,,,,,,,
1771017877.2910442,ATTITUDE,,,,,,,,,0.002155400114133954,-0.004142248071730137,-2.9842777252197266,-0.8283047676086426,,,,,,,,
1771017877.4768841,ATTITUDE,,,,,,,,,0.0018891727086156607,-0.004984940402209759,3.1268436908721924,-0.6175296902656555,,,,,,,,
1771017877.7576663,ATTITUDE,,,,,,,,,0.000927724177017808,-0.006015579681843519,3.0021262168884277,-0.4295549988746643,,,,,,,,
1771017878.029141,ATTITUDE,,,,,,,,,-0.0009610552806407213,-0.01196981780230999,2.9614596366882324,0.024013405665755272,,,,,,,,
1771017878.212119,ATTITUDE,,,,,,,,,0.00046259519876912236,-0.011942783370614052,2.963930368423462,0.005179116502404213,,,,,,,,
1771017878.4222045,ATTITUDE,,,,,,,,,-0.00027684695669449866,-0.016863999888300896,2.9631803035736084,-0.010651667602360249,,,,,,,,
1771017878.706458,ATTITUDE,,,,,,,,,-8.526239071215969e-06,-0.01639294996857643,2.963299512863159,0.0015683678211644292,,,,,,,,
1771017878.898031,ATTITUDE,,,,,,,,,8.276556036435068e-05,-0.016670120880007744,2.9630887508392334,-0.007394843269139528,,,,,,,,
1771017879.1544795,ATTITUDE,,,,,,,,,0.0002371465670876205,-0.01694418117403984,2.962986707687378,-0.000846480019390583,,,,,,,,
1771017879.360761,ATTITUDE,,,,,,,,,0.00028473007841967046,-0.017199410125613213,2.9628772735595703,-5.486339796334505e-05,,,,,,,,
1771017879.5986068,ATTITUDE,,,,,,,,,0.00036643503699451685,-0.0176127590239048,2.9626858234405518,0.0018524614861235023,,,,,,,,
1771017879.7846632,ALTITUDE,,,,,,,,598.160400390625,,,,,,,,,,,,
1771017879.81466,LOCAL_POSITION_NED,,,,,,,,,,,,,,11.622748374938965,13.072036743164062,4.516448974609375,,,,
1771017879.8386583,SERVO_OUTPUT_RAW,,,,0,0,0,0,,,,,,,,,,,,,
1771017879.8926623,ATTITUDE,,,,,,,,,0.07466714084148407,-0.0334126316010952,2.9562690258026123,0.048597969114780426,,,,,,,,
1771017880.1026113,ATTITUDE,,,,,,,,,0.07248802483081818,0.035691361874341965,3.0125627517700195,0.3588181734085083,,,,,,,,
1771017880.1146994,BATTERY_STATUS,11.424,0.0,55,,,,,,,,,,,,,,,,,
1771017880.322335,ATTITUDE,,,,,,,,,0.11238496005535126,0.13541866838932037,-3.1329703330993652,0.7760016918182373,,,,,,,,
1771017880.5721018,ATTITUDE,,,,,,,,,0.060598600655794144,0.13085734844207764,-2.8972971439361572,1.2246848344802856,,,,,,,,
1771017880.7586021,ATTITUDE,,,,,,,,,0.04152541980147362,-0.02274937368929386,-2.607424020767212,1.2095246315002441,,,,,,,,
1771017881.0209787,ATTITUDE,,,,,,,,,-0.006252859719097614,-0.1056019738316536,-2.4469926357269287,0.1147293895483017,,,,,,,,
1771017881.2370007,ATTITUDE,,,,,,,,,-0.0017565629677847028,-0.21039238572120667,-2.4654479026794434,-0.09029389172792435,,,,,,,,
1771017881.486773,ATTITUDE,,,,,,,,,0.022374628111720085,-0.06038913503289223,-2.487433671951294,-0.21404771506786346,,,,,,,,
1771017881.719036,ATTITUDE,,,,,,,,,-0.008968841284513474,-0.04773326590657234,-2.498561143875122,-0.0021467809565365314,,,,,,,,
1771017881.9574342,ATTITUDE,,,,,,,,,0.006038806401193142,0.0295134037733078,-2.499950408935547,-0.0062493388541042805,,,,,,,,
1771017882.1427307,ATTITUDE,,,,,,,,,0.0010539524955675006,-0.00374373490922153,-2.5018701553344727,-0.0009600922930985689,,,,,,,,
1771017882.3751671,ATTITUDE,,,,,,,,,-0.0007323767640627921,-0.007433421444147825,-2.501845121383667,0.011400645598769188,,,,,,,,
1771017882.6192627,ATTITUDE,,,,,,,,,0.003203921252861619,-0.0051577091217041016,-2.5007095336914062,0.00924419704824686,,,,,,,,
1771017882.8962257,ATTITUDE,,,,,,,,,-0.00016067313845269382,-0.007965384982526302,-2.5011661052703857,-0.0013613563496619463,,,,,,,,
1771017883.0883725,ATTITUDE,,,,,,,,,0.0005049394676461816,-0.007649424951523542,-2.5012974739074707,0.00022446965158451349,,,,,,,,
1771017883.2165298,ALTITUDE,,,,,,,,598.1920776367188,,,,,,,,,,,,
1771017883.2405407,LOCAL_POSITION_NED,,,,,,,,,,,,,,14.414266586303711,13.323763847351074,3.226778507232666,,,,
1771017883.2700107,SERVO_OUTPUT_RAW,,,,0,0,0,0,,,,,,,,,,,,,
1771017883.3188808,ATTITUDE,,,,,,,,,0.00026643218006938696,-0.00808633677661419,-2.501452922821045,0.0005676283035427332,,,,,,,,
1771017883.5560586,ATTITUDE,,,,,,,,,0.00018764064589049667,-0.008400952443480492,-2.501582622528076,0.0015909757930785418,,,,,,,,
1771017883.74809,ATTITUDE,,,,,,,,,9.458244312554598e-05,-0.008735469542443752,-2.5017635822296143,9.979333844967186e-05,,,,,,,,
1771017884.0227368,ATTITUDE,,,,,,,,,-7.168450974859297e-05,-0.009054893627762794,-2.501903533935547,-0.0015175890875980258,,,,,,,,
1771017884.2082632,ATTITUDE,,,,,,,,,-5.068920359008189e-07,-0.008820109069347382,-2.5019638538360596,-0.0012452721130102873,,,,,,,,
1771017884.4920158,ATTITUDE,,,,,,,,,-2.275353472214192e-05,-0.008689254522323608,-2.5021274089813232,0.0011701032053679228,,,,,,,,
1771017884.7145545,ATTITUDE,,,,,,,,,-0.00024010548077058047,-0.009041907265782356,-2.5027966499328613,0.0020857220515608788,,,,,,,,
1771017884.9543698,ATTITUDE,,,,,,,,,-0.0003795339143835008,-0.009512665681540966,-2.503333568572998,0.006974190939217806,,,,,,,,
1771017885.1339316,ATTITUDE,,,,,,,,,-0.00038389061228372157,-0.010196465067565441,-2.503920555114746,-0.012243417091667652,,,,,,,,
1771017885.402583,ATTITUDE,,,,,,,,,-0.0007078152266331017,-0.008740762248635292,-2.5034046173095703,0.016582027077674866,,,,,,,,
1771017885.6386638,ATTITUDE,,,,,,,,,0.0014507606392726302,-0.0073958635330200195,-2.4982497692108154,0.036764904856681824,,,,,,,,
1771017885.8760166,ATTITUDE,,,,,,,,,0.0019404528429731727,-0.005490776617079973,-2.498947858810425,0.03218380734324455,,,,,,,,
1771017886.1062171,ATTITUDE,,,,,,,,,0.0017171994550153613,-0.005459092557430267,-2.4981637001037598,-0.019834673032164574,,,,,,,,
1771017886.3648891,ATTITUDE,,,,,,,,,0.0018916265107691288,-0.004609957337379456,-2.4974558353424072,-0.004392377566546202,,,,,,,,
1771017886.5508823,ATTITUDE,,,,,,,,,0.00084165099542588,-0.0024301677476614714,-2.4994471073150635,-0.0014647087082266808,,,,,,,,
1771017886.6789348,ALTITUDE,,,,,,,,598.5673217773438,,,,,,,,,,,,
1771017886.7029364,LOCAL_POSITION_NED,,,,,,,,,,,,,,14.308760643005371,13.412293434143066,1.1939666271209717,,,,
1771017886.732938,SERVO_OUTPUT_RAW,,,,1070,504,479,1089,,,,,,,,,,,,,
1771017886.8330266,ATTITUDE,,,,,,,,,0.001027300488203764,-0.0011633184039965272,-2.5048575401306152,-0.02068730629980564,,,,,,,,
1771017887.0429058,ATTITUDE,,,,,,,,,0.0002546912874095142,0.001159125124104321,-2.5130372047424316,-0.03078172355890274,,,,,,,,
1771017887.0549085,BATTERY_STATUS,11.244,0.0,55,,,,,,,,,,,,,,,,,
1771017887.2622674,ATTITUDE,,,,,,,,,0.002239934401586652,0.001531035522930324,-2.5173354148864746,-0.015719663351774216,,,,,,,,
1771017887.4597528,ATTITUDE,,,,,,,,,-0.0035136884544044733,0.0004035930032841861,-2.507338047027588,0.09617970138788223,,,,,,,,
1771017887.7443595,ATTITUDE,,,,,,,,,-0.0049539911560714245,0.0014757924946025014,-2.4741830825805664,0.20499007403850555,,,,,,,,
1771017887.9580126,ATTITUDE,,,,,,,,,0.0010444760555401444,0.0013350554509088397,-2.415886878967285,0.2843509316444397,,,,,,,,
1771017888.2377005,ATTITUDE,,,,,,,,,-0.004131624940782785,0.004260238725692034,-2.344332218170166,0.3308384418487549,,,,,,,,
1771017888.4299088,ATTITUDE,,,,,,,,,-0.0003026337653864175,0.0011455885833129287,-2.275629997253418,0.25452640652656555,,,,,,,,
1771017888.6664565,ATTITUDE,,,,,,,,,-0.000843062240164727,0.0038729237858206034,-2.2367472648620605,0.021067949011921883,,,,,,,,
1771017888.9280703,ATTITUDE,,,,,,,,,-0.004286089912056923,0.00293273339048028,-2.228182792663574,0.006014696322381496,,,,,,,,
1771017889.08301,ATTITUDE,,,,,,,,,0.010989541187882423,0.0029743430204689503,-2.2467164993286133,-0.10467823594808578,,,,,,,,
1771017889.3672915,ATTITUDE,,,,,,,,,0.0005509114707820117,0.003612898988649249,-2.274125814437866,-0.14928820729255676,,,,,,,,
1771017889.5589094,ATTITUDE,,,,,,,,,0.0017140544950962067,0.0007885625818744302,-2.315389633178711,-0.21114926040172577,,,,,,,,
1771017889.8209717,ATTITUDE,,,,,,,,,0.009490651078522205,0.0035020022187381983,-2.3712358474731445,-0.30684754252433777,,,,,,,,
1771017890.03752,ATTITUDE,,,,,,,,,-0.003410649485886097,0.004169314634054899,-2.452268123626709,-0.3653327524662018,,,,,,,,
1771017890.1180458,ALTITUDE,,,,,,,,598.7601928710938,,,,,,,,,,,,
1771017890.1420398,LOCAL_POSITION_NED,,,,,,,,,,,,,,14.691420555114746,13.652668952941895,-0.26079070568084717,,,,
1771017890.2175324,SERVO_OUTPUT_RAW,,,,1602,247,109,1569,,,,,,,,,,,,,
1771017890.2666104,ATTITUDE,,,,,,,,,0.009607444517314434,0.003115768078714609,-2.5358517169952393,-0.3611990213394165,,,,,,,,
1771017890.5042117,ATTITUDE,,,,,,,,,-0.004841935820877552,-0.0006857692496851087,-2.6295347213745117,-0.45727089047431946,,,,,,,,
1771017890.7539983,ATTITUDE,,,,,,,,,0.00678803026676178,0.0039606476202607155,-2.726339817047119,-0.40314027667045593,,,,,,,,
1771017890.9765697,ATTITUDE,,,,,,,,,-0.004274468868970871,0.0018900033319368958,-2.8169937133789062,-0.3403151333332062,,,,,,,,
1771017891.2081149,ATTITUDE,,,,,,,,,0.008649952709674835,-0.0005514998338185251,-2.8914058208465576,-0.2668389678001404,,,,,,,,
1771017891.446216,ATTITUDE,,,,,,,,,-0.003177945502102375,2.0039055016241036e-05,-2.9596121311187744,-0.3211685121059418,,,,,,,,
1771017891.7202983,ATTITUDE,,,,,,,,,0.008315705694258213,0.00019870471442118287,-3.040070056915283,-0.37063565850257874,,,,,,,,
1771017891.9118764,ATTITUDE,,,,,,,,,-0.004919391591101885,-0.0013883934589102864,-3.1326355934143066,-0.43284228444099426,,,,,,,,
1771017892.168285,ATTITUDE,,,,,,,,,0.003991120029240847,-0.0012779951794072986,3.039623260498047,-0.5034080147743225,,,,,,,,
1771017892.383857,ATTITUDE,,,,,,,,,-0.003648183774203062,-0.00032256628037430346,2.902432918548584,-0.6668247580528259,,,,,,,,
1771017892.620283,ATTITUDE,,,,,,,,,-0.00824486929923296,-0.0024925994221121073,2.7528676986694336,-0.5332378149032593,,,,,,,,
1771017892.8525038,ATTITUDE,,,,,,,,,-0.006058952771127224,-0.006020944565534592,2.6601171493530273,-0.25605735182762146,,,,,,,,
1771017893.0743096,ATTITUDE,,,,,,,,,0.0005459978710860014,-0.00899321399629116,2.6170969009399414,-0.11109073460102081,,,,,,,,
1771017893.2778785,ATTITUDE,,,,,,,,,0.0003392912622075528,-0.006292614620178938,2.61519193649292,0.00675572082400322,,,,,,,,
1771017893.5621192,ATTITUDE,,,,,,,,,0.0007262704311870039,-0.0060593122616410255,2.6151397228240967,0.0027220642659813166,,,,,,,,
1771017893.6950414,ALTITUDE,,,,,,,,598.4879760742188,,,,,,,,,,,,
1771017893.7190447,LOCAL_POSITION_NED,,,,,,,,,,,,,,15.41684627532959,14.911456108093262,-0.4106559455394745,,,,
1771017893.7430427,SERVO_OUTPUT_RAW,,,,0,0,0,0,,,,,,,,,,,,,
1771017893.7990391,ATTITUDE,,,,,,,,,0.000587973918300122,-0.005875228904187679,2.6152703762054443,-0.0020116048399358988,,,,,,,,
1771017894.0551243,ATTITUDE,,,,,,,,,0.0004351641982793808,-0.00560904573649168,2.6154162883758545,0.005068333353847265,,,,,,,,
1771017894.0731275,BATTERY_STATUS,11.366,0.0,51,,,,,,,,,,,,,,,,,
1771017894.2253878,ATTITUDE,,,,,,,,,0.00038958119694143534,-0.005415771156549454,2.615434169769287,-0.0013427294325083494,,,,,,,,
1771017894.4691072,ATTITUDE,,,,,,,,,0.00047996739158406854,-0.005314428824931383,2.6154794692993164,-0.00048491067718714476,,,,,,,,
1771017894.7050228,ATTITUDE,,,,,,,,,0.0005636115674860775,-0.00539788231253624,2.6154425144195557,0.0006126797525212169,,,,,,,,
1771017894.9089048,ATTITUDE,,,,,,,,,0.00035415292950347066,-0.00238344119861722,2.61614990234375,0.02239793911576271,,,,,,,,
1771017895.1554236,ATTITUDE,,,,,,,,,0.014630207791924477,-0.01054311916232109,2.6451969146728516,0.32529953122138977,,,,,,,,
1771017895.3995302,ATTITUDE,,,,,,,,,0.03346433490514755,0.03534337505698204,2.6964852809906006,0.013656653463840485,,,,,,,,
1771017895.630663,ATTITUDE,,,,,,,,,0.06546422094106674,0.019527774304151535,2.6459085941314697,-0.39045751094818115,,,,,,,,
1771017895.8353589,ATTITUDE,,,,,,,,,0.06798622757196426,-0.02505488693714142,2.544377326965332,-0.40928736329078674,,,,,,,,
1771017896.0966856,ATTITUDE,,,,,,,,,0.012412340380251408,-0.09528891742229462,2.4464704990386963,-0.3769805133342743,,,,,,,,
1771017896.1612155,VIBRATION,,,,,,,,,,,,,,,,,1.9419784891283598e-08,0.01990346424281597,0.271924763917923,
1771017896.340776,ATTITUDE,,,,,,,,,-0.011360150761902332,-0.10734380036592484,2.3852734565734863,-0.18050459027290344,,,,,,,,
1771017896.5333512,ATTITUDE,,,,,,,,,0.016115430742502213,-0.0911819264292717,2.327561616897583,-0.3432072699069977,,,,,,,,
1771017896.7369187,ATTITUDE,,,,,,,,,0.03274882957339287,-0.039519455283880234,2.269956588745117,-0.0987360030412674,,,,,,,,
1771017897.045548,ATTITUDE,,,,,,,,,-0.015714874491095543,-0.033444441854953766,2.2688236236572266,0.07192925363779068,,,,,,,,
1771017897.174169,ALTITUDE,,,,,,,,598.29248046875,,,,,,,,,,,,
1771017897.1981678,LOCAL_POSITION_NED,,,,,,,,,,,,,,16.904094696044922,13.177363395690918,-0.303256630897522,,,,
1771017897.22217,SERVO_OUTPUT_RAW,,,,0,0,0,0,,,,,,,,,,,,,
1771017897.2761667,ATTITUDE,,,,,,,,,-0.0022216327488422394,-0.016626864671707153,2.281379461288452,0.056734345853328705,,,,,,,,
1771017897.4570117,ATTITUDE,,,,,,,,,-0.01129523478448391,-0.01140363235026598,2.284514904022217,0.0007032082648947835,,,,,,,,
1771017897.701089,ATTITUDE,,,,,,,,,-0.009553265757858753,-0.008844753727316856,2.284453868865967,-1.340382732450962e-05,,,,,,,,
1771017897.961715,ATTITUDE,,,,,,,,,-0.009988059289753437,-0.009092675521969795,2.284736156463623,0.00021760197705589235,,,,,,,,
1771017898.1662858,ATTITUDE,,,,,,,,,-0.010160970501601696,-0.009119896218180656,2.284865379333496,0.0019629159942269325,,,,,,,,
1771017898.4498725,ATTITUDE,,,,,,,,,-0.010056775994598866,-0.009133628569543362,2.284921884536743,0.001129411393776536,,,,,,,,
1771017898.6199155,ATTITUDE,,,,,,,,,-0.00997022446244955,-0.009118304587900639,2.284928798675537,4.252197686582804e-05,,,,,,,,
1771017898.8646824,ATTITUDE,,,,,,,,,-0.009858585894107819,-0.009074117057025433,2.2848963737487793,-0.001397796324454248,,,,,,,,
1771017899.075231,ATTITUDE,,,,,,,,,-0.009746558964252472,-0.009093440137803555,2.284937858581543,0.0009919084841385484,,,,,,,,
1771017899.3329499,ATTITUDE,,,,,,,,,-0.009510448202490807,-0.009004008956253529,2.2849998474121094,0.0010843497002497315,,,,,,,,
1771017899.5645604,ATTITUDE,,,,,,,,,-0.009097011759877205,-0.008654567413032055,2.284816026687622,-0.013843469321727753,,,,,,,,
1771017899.8036296,ATTITUDE,,,,,,,,,-0.008702931925654411,-0.008677148260176182,2.284766674041748,-0.007267998065799475,,,,,,,,
1771017900.0205247,ATTITUDE,,,,,,,,,-0.008270365186035633,-0.009183710440993309,2.284749984741211,0.031804513186216354,,,,,,,,
1771017900.276474,ATTITUDE,,,,,,,,,-0.007904023863375187,-0.009299109689891338,2.284553050994873,-0.013556406833231449,,,,,,,,
1771017900.512533,ATTITUDE,,,,,,,,,-0.006113180425018072,-0.0069427285343408585,2.285224676132202,0.012594460509717464,,,,,,,,
1771017900.5889125,ALTITUDE,,,,,,,,598.6571655273438,,,,,,,,,,,,
1771017900.6129158,LOCAL_POSITION_NED,,,,,,,,,,,,,,17.93944549560547,12.889080047607422,-0.3325912356376648,,,,
1771017900.6429145,SERVO_OUTPUT_RAW,,,,668,489,543,683,,,,,,,,,,,,,
1771017900.7434325,ATTITUDE,,,,,,,,,-0.005467141512781382,-0.00630946084856987,2.286497116088867,0.01429979968816042,,,,,,,,
1771017900.9867258,ATTITUDE,,,,,,,,,-0.002082408871501684,-0.0023920496460050344,2.298194169998169,0.08095940202474594,,,,,,,,
1771017900.9987252,BATTERY_STATUS,11.227,9.41,56,,,,,,,,,,,,,,,,,
1771017901.2222755,ATTITUDE,,,,,,,,,-9.29404777707532e-05,0.00015746575081720948,2.3110122680664062,0.09488072246313095,,,,,,,,
1771017901.4198484,ATTITUDE,,,,,,,,,-0.0006739225937053561,0.00030657212482765317,2.3222692012786865,0.07705377042293549,,,,,,,,
1771017901.6002965,ATTITUDE,,,,,,,,,-0.00017134688096120954,0.0011440508533269167,2.3438074588775635,0.12180785089731216,,,,,,,,
1771017901.8899724,ATTITUDE,,,,,,,,,-0.0002988452324643731,-0.0016204997664317489,2.381654739379883,0.24559064209461212,,,,,,,,
1771017902.078,ATTITUDE,,,,,,,,,-0.004508170299232006,0.0009585701627656817,2.4433743953704834,0.31427374482154846,,,,,,,,
1771017902.3341053,ATTITUDE,,,,,,,,,-0.0008452108595520258,0.0015185876982286572,2.516242504119873,0.26854845881462097,,,,,,,,
1771017902.5658221,ATTITUDE,,,,,,,,,0.0007406782824546099,0.0008884149137884378,2.5757293701171875,0.26123544573783875,,,,,,,,
1771017902.8219233,ATTITUDE,,,,,,,,,0.004679094534367323,-7.196276419563219e-05,2.6355059146881104,0.2814064025878906,,,,,,,,
1771017903.0256581,ATTITUDE,,,,,,,,,0.0010474431328475475,-0.000489013793412596,2.6875953674316406,0.24004517495632172,,,,,,,,
1771017903.3094296,ATTITUDE,,,,,,,,,0.0028749434277415276,0.0012773749185726047,2.7219738960266113,0.07734278589487076,,,,,,,,
1771017903.5020068,ATTITUDE,,,,,,,,,0.0009358706302009523,0.0004816397267859429,2.7460367679595947,0.1306944638490677,,,,,,,,
1771017903.7575004,ATTITUDE,,,,,,,,,0.0009728409349918365,0.0018893060041591525,2.7710423469543457,0.08822299540042877,,,,,,,,
1771017903.9557533,ATTITUDE,,,,,,,,,0.00029428667039610445,-0.0020848617423325777,2.792219638824463,0.11316753923892975,,,,,,,,
1771017904.0442734,ALTITUDE,,,,,,,,599.0746459960938,,,,,,,,,,,,
1771017904.1723154,LOCAL_POSITION_NED,,,,,,,,,,,,,,19.30118751525879,12.633832931518555,-1.4860185384750366,,,,
1771017904.1965005,SERVO_OUTPUT_RAW,,,,1280,741,653,1336,,,,,,,,,,,,,
1771017904.2494667,ATTITUDE,,,,,,,,,-0.0023923073895275593,-0.0016442220658063889,2.8184406757354736,0.1145903542637825,,,,,,,,
1771017904.429706,ATTITUDE,,,,,,,,,-0.0009811734780669212,-0.00211710506118834,2.8347439765930176,0.07199114561080933,,,,,,,,
1771017904.6797395,ATTITUDE,,,,,,,,,0.0013299447018653154,-0.0006333342753350735,2.84462571144104,0.10356405377388,,,,,,,,
1771017904.8717911,ATTITUDE,,,,,,,,,0.002828798722475767,-0.0009693449246697128,2.8680901527404785,0.1180654764175415,,,,,,,,
1771017905.1508849,ATTITUDE,,,,,,,,,0.008851355873048306,0.0023362701758742332,2.9036202430725098,0.22692012786865234,,,,,,,,
1771017905.3826485,ATTITUDE,,,,,,,,,0.005112353712320328,0.0006460862350650132,2.952645778656006,0.29064956307411194,,,,,,,,
1771017905.6570008,ATTITUDE,,,,,,,,,-0.0008485306752845645,-0.0006676666089333594,3.0048985481262207,0.22043649852275848,,,,,,,,
1771017905.8032866,ATTITUDE,,,,,,,,,0.00855117104947567,0.00013816198043059558,3.054378032684326,0.2321442812681198,,,,,,,,
1771017906.05924,ATTITUDE,,,,,,,,,0.021510383114218712,-0.0004200262192171067,3.113860845565796,0.28789159655570984,,,,,,,,
1771017906.3148086,ATTITUDE,,,,,,,,,0.0006544418865814805,0.0013607579749077559,-3.092620611190796,0.30336230993270874,,,,,,,,
1771017906.552892,ATTITUDE,,,,,,,,,0.0023986303713172674,-0.006751357112079859,-3.0196454524993896,0.3596435785293579,,,,,,,,
1771017906.738468,ATTITUDE,,,,,,,,,-0.0006160284974612296,0.004782652948051691,-2.9344887733459473,0.28529873490333557,,,,,,,,
1771017907.0010712,ATTITUDE,,,,,,,,,-0.001771737588569522,-0.008355214260518551,-2.825568199157715,0.37547439336776733,,,,,,,,
1771017907.2232978,ATTITUDE,,,,,,,,,0.00307937478646636,-0.008928842842578888,-2.7751924991607666,-0.004738571587949991,,,,,,,,
1771017907.454987,ATTITUDE,,,,,,,,,0.0008119144476950169,-0.007927111349999905,-2.777207374572754,0.007925368845462799,,,,,,,,
1771017907.6365442,ALTITUDE,,,,,,,,598.4034423828125,,,,,,,,,,,,
1771017907.6605463,LOCAL_POSITION_NED,,,,,,,,,,,,,,22.52179718017578,12.040287017822266,1.0828487873077393,,,,
1771017907.6915472,SERVO_OUTPUT_RAW,,,,0,0,0,0,,,,,,,,,,,,,
1771017907.739545,ATTITUDE,,,,,,,,,0.0012528481893241405,-0.008064682595431805,-2.7771716117858887,0.00886458158493042,,,,,,,,
1771017907.9896507,ATTITUDE,,,,,,,,,0.0010092806769534945,-0.007919509895145893,-2.777055025100708,0.0034294906072318554,,,,,,,,
1771017908.0023086,BATTERY_STATUS,11.295,0.0,52,,,,,,,,,,,,,,,,,
1771017908.1714401,ATTITUDE,,,,,,,,,0.000683615799061954,-0.007866212166845798,-2.7770442962646484,0.0026561396662145853,,,,,,,,
1771017908.3641455,ATTITUDE,,,,,,,,,0.00033663221984170377,-0.007828930392861366,-2.7769875526428223,0.0020582363940775394,,,,,,,,
1771017908.5965729,ATTITUDE,,,,,,,,,-0.00010518641647649929,-0.007799129467457533,-2.777085304260254,0.00011165926116518676,,,,,,,,
1771017908.8810093,ATTITUDE,,,,,,,,,-0.00029968636226840317,-0.008030022494494915,-2.777287244796753,0.0017875249031931162,,,,,,,,
1771017909.1270304,ATTITUDE,,,,,,,,,-0.00048503800644539297,-0.008273809216916561,-2.7773568630218506,0.00201078737154603,,,,,,,,
1771017909.269419,ATTITUDE,,,,,,,,,-0.0007127372664399445,-0.008550573140382767,-2.7775144577026367,0.00157508859410882,,,,,,,,
1771017909.555323,ATTITUDE,,,,,,,,,-0.0007843664498068392,-0.008821028284728527,-2.7775349617004395,0.0010438128374516964,,,,,,,,
1771017909.7654736,ATTITUDE,,,,,,,,,-0.000988622079603374,-0.00912979245185852,-2.777738571166992,-0.0013674487126991153,,,,,,,,
1771017910.019576,ATTITUDE,,,,,,,,,-0.001212037866935134,-0.009436527267098427,-2.777921676635742,0.0005156536353752017,,,,,,,,
1771017910.218143,ATTITUDE,,,,,,,,,-0.0015233774902299047,-0.009718505665659904,-2.777963161468506,-0.0005477193044498563,,,,,,,,
1771017910.4617252,ATTITUDE,,,,,,,,,-0.003105758922174573,-0.011484296061098576,-2.778850793838501,0.002200760180130601,,,,,,,,
1771017910.6754117,ATTITUDE,,,,,,,,,-0.00474935956299305,-0.013338766060769558,-2.78023624420166,0.0011129314079880714,,,,,,,,
1771017910.9718604,ATTITUDE,,,,,,,,,-0.005540021695196629,-0.0146455317735672,-2.781156301498413,0.001497164717875421,,,,,,,,
1771017911.114451,ALTITUDE,,,,,,,,598.7100219726562,,,,,,,,,,,,
1771017911.144454,LOCAL_POSITION_NED,,,,,,,,,,,,,,22.945764541625977,11.657410621643066,0.9127696752548218,,,,
1771017911.1684525,SERVO_OUTPUT_RAW,,,,0,0,0,0,,,,,,,,,,,,,
1771017911.2164514,ATTITUDE,,,,,,,,,-0.005506365094333887,-0.015618538483977318,-2.78145694732666,0.00011326056846883148,,,,,,,,
1771017911.3964276,ATTITUDE,,,,,,,,,-0.005012175999581814,-0.01640886813402176,-2.781489610671997,-0.0003852428635582328,,,,,,,,
1771017911.640411,ATTITUDE,,,,,,,,,-0.004384710919111967,-0.01699124462902546,-2.781330108642578,0.0019488027319312096,,,,,,,,
1771017911.890987,ATTITUDE,,,,,,,,,-0.003967090044170618,-0.01736992970108986,-2.7812421321868896,0.0008643389446660876,,,,,,,,
1771017912.094663,ATTITUDE,,,,,,,,,-0.003789640497416258,-0.01772414892911911,-2.781191349029541,4.088826244696975e-06,,,,,,,,
1771017912.3790195,ATTITUDE,,,,,,,,,-0.0037516599986702204,-0.01795566827058792,-2.781153678894043,-0.00019418459851294756,,,,,,,,
1771017912.5492907,ATTITUDE,,,,,,,,,-0.0037619939539581537,-0.0181948933750391,-2.7811360359191895,0.00014361678040586412,,,,,,,,
1771017912.7928314,ATTITUDE,,,,,,,,,-0.003741215681657195,-0.018386974930763245,-2.781043529510498,0.00013773248065263033,,,,,,,,
1771017913.0426056,ATTITUDE,,,,,,,,,-0.003719047177582979,-0.018538860604166985,-2.7809412479400635,-0.0003671164740808308,,,,,,,,
1771017913.2585847,ATTITUDE,,,,,,,,,-0.0037385434843599796,-0.018811363726854324,-2.780857801437378,-8.053815690800548e-06,,,,,,,,
1771017913.4904637,ATTITUDE,,,,,,,,,-0.003704313188791275,-0.018988609313964844,-2.780700922012329,0.001056653680279851,,,,,,,,
1771017913.7223694,ATTITUDE,,,,,,,,,-0.003729097777977586,-0.019163964316248894,-2.780513048171997,-9.648986451793462e-05,,,,,,,,
1771017913.9329598,ATTITUDE,,,,,,,,,-0.0037490956019610167,-0.019279686734080315,-2.780378580093384,0.0006261271191760898,,,,,,,,
1771017914.161146,ATTITUDE,,,,,,,,,-0.003678610548377037,-0.019331874325871468,-2.7803115844726562,0.0010526415426284075,,,,,,,,
1771017914.3933928,ATTITUDE,,,,,,,,,-0.0037321574054658413,-0.019385794177651405,-2.780226469039917,0.0006963966879993677,,,,,,,,
1771017914.5732863,ALTITUDE,,,,,,,,598.33740234375,,,,,,,,,,,,
1771017914.597286,LOCAL_POSITION_NED,,,,,,,,,,,,,,22.998323440551758,11.628094673156738,-0.31244587898254395,,,,
1771017914.6272867,SERVO_OUTPUT_RAW,,,,0,0,0,0,,,,,,,,,,,,,
1771017914.6752822,ATTITUDE,,,,,,,,,-0.0037543040234595537,-0.019490232691168785,-2.7802414894104004,-0.00021630189439747483,,,,,,,,
1771017914.9125235,ATTITUDE,,,,,,,,,-0.003795152995735407,-0.019454870373010635,-2.7802653312683105,0.0006646406836807728,,,,,,,,
1771017914.9250462,BATTERY_STATUS,11.444,0.0,57,,,,,,,,,,,,,,,,,
1771017915.0665698,ATTITUDE,,,,,,,,,-0.003782086307182908,-0.01949818804860115,-2.780294418334961,-0.0001735390251269564,,,,,,,,
1771017915.366924,ATTITUDE,,,,,,,,,-0.0037664505653083324,-0.019592607393860817,-2.7804410457611084,-0.0003121102345176041,,,,,,,,
1771017915.5527203,ATTITUDE,,,,,,,,,-0.0037098198663443327,-0.019584115594625473,-2.7805705070495605,-0.0009405195596627891,,,,,,,,
1771017915.8376234,ATTITUDE,,,,,,,,,-0.0036931796930730343,-0.019527072086930275,-2.7807421684265137,-0.0008065667934715748,,,,,,,,
1771017916.0197887,ATTITUDE,,,,,,,,,-0.0036380551755428314,-0.019497085362672806,-2.7808456420898438,-0.00037785383756272495,,,,,,,,
1771017916.2762287,ATTITUDE,,,,,,,,,-0.0036143786273896694,-0.019491923972964287,-2.7810027599334717,0.0005202246829867363,,,,,,,,
1771017916.5083637,ATTITUDE,,,,,,,,,-0.0035071619786322117,-0.01943087764084339,-2.7813265323638916,0.0003922481555491686,,,,,,,,
1771017916.7694604,ATTITUDE,,,,,,,,,-0.003501330502331257,-0.019339360296726227,-2.7816638946533203,0.002352881943807006,,,,,,,,
1771017916.9615812,ATTITUDE,,,,,,,,,-0.003506699576973915,-0.019324472174048424,-2.781963348388672,-0.00015718942449893802,,,,,,,,
1771017917.211313,ATTITUDE,,,,,,,,,-0.003512888215482235,-0.019227204844355583,-2.7820022106170654,0.0005312545108608902,,,,,,,,
1771017917.40949,ATTITUDE,,,,,,,,,-0.0035149087198078632,-0.01918194070458412,-2.7818846702575684,0.0005152762169018388,,,,,,,,
1771017917.677396,ATTITUDE,,,,,,,,,-0.003585275262594223,-0.019144684076309204,-2.781827926635742,0.00024354916240554303,,,,,,,,
1771017917.9094522,ATTITUDE,,,,,,,,,-0.003716349834576249,-0.019198160618543625,-2.7817296981811523,-0.000798078253865242,,,,,,,,
1771017917.997982,ALTITUDE,,,,,,,,597.8961181640625,,,,,,,,,,,,
1771017918.021989,LOCAL_POSITION_NED,,,,,,,,,,,,,,23.020118713378906,11.6234769821167,-0.23333081603050232,,,,
1771017918.0459845,SERVO_OUTPUT_RAW,,,,0,0,0,0,,,,,,,,,,,,,
1771017918.111983,ATTITUDE,,,,,,,,,-0.0037358864210546017,-0.01912611722946167,-2.781794548034668,-0.0005962660070508718,,,,,,,,
1771017918.3665192,ATTITUDE,,,,,,,,,-0.0037132943980395794,-0.019005585461854935,-2.7821412086486816,-0.0004032799624837935,,,,,,,,
1771017918.6163645,ATTITUDE,,,,,,,,,-0.0037767502944916487,-0.018900450319051743,-2.7823987007141113,0.0011995144886896014,,,,,,,,
1771017918.8159745,ATTITUDE,,,,,,,,,-0.0037917415611445904,-0.01883148029446602,-2.7824504375457764,0.001279044896364212,,,,,,,,
1771017919.0720992,ATTITUDE,,,,,,,,,-0.0037892896216362715,-0.018815364688634872,-2.782608985900879,-6.998924072831869e-05,,,,,,,,
1771017919.2639377,ATTITUDE,,,,,,,,,-0.003792247734963894,-0.01878107711672783,-2.7830841541290283,0.0004637626698240638,,,,,,,,
1771017919.584241,ATTITUDE,,,,,,,,,-0.003817869583144784,-0.01873995177447796,-2.7835121154785156,0.0010771899251267314,,,,,,,,
1771017919.7302916,ATTITUDE,,,,,,,,,-0.0037643788382411003,-0.018693894147872925,-2.783944845199585,0.00012335734209045768,,,,,,,,
1771017919.973485,ATTITUDE,,,,,,,,,-0.003721049055457115,-0.018656818196177483,-2.784262180328369,-0.00041807565139606595,,,,,,,,
1771017920.251318,ATTITUDE,,,,,,,,,-0.003714987076818943,-0.018580054864287376,-2.7845771312713623,0.00045813422184437513,,,,,,,,
1771017920.4314632,ATTITUDE,,,,,,,,,-0.003698695683851838,-0.018464380875229836,-2.7848918437957764,0.0008630110532976687,,,,,,,,
1771017920.6654596,ATTITUDE,,,,,,,,,-0.0036645878572016954,-0.018366655334830284,-2.7851996421813965,-0.0005739802727475762,,,,,,,,
1771017920.857812,ATTITUDE,,,,,,,,,-0.0036431176122277975,-0.018285362049937248,-2.7854745388031006,0.0002462982665747404,,,,,,,,
1771017921.1378984,ATTITUDE,,,,,,,,,-0.0036512173246592283,-0.018251286819577217,-2.7856552600860596,0.0001651614293223247,,,,,,,,
1771017921.3708286,ATTITUDE,,,,,,,,,-0.0036663322243839502,-0.018149133771657944,-2.785788059234619,0.0020481788087636232,,,,,,,,
1771017921.4523566,ALTITUDE,,,,,,,,598.0599365234375,,,,,,,,,,,,
1771017921.5289462,LOCAL_POSITION_NED,,,,,,,,,,,,,,23.024749755859375,11.62345027923584,-0.2201153039932251,,,,
1771017921.558951,SERVO_OUTPUT_RAW,,,,0,0,0,0,,,,,,,,,,,,,
1771017921.6070535,ATTITUDE,,,,,,,,,-0.0037474867422133684,-0.018009670078754425,-2.785921335220337,0.0016219998942688107,,,,,,,,
1771017921.7927399,ATTITUDE,,,,,,,,,-0.0038046545814722776,-0.017924631014466286,-2.7861132621765137,0.00013334114919416606,,,,,,,,
1771017921.9147882,BATTERY_STATUS,11.47,0.0,58,,,,,,,,,,,,,,,,,
1771017922.0786784,ATTITUDE,,,,,,,,,-0.003839404322206974,-0.017777767032384872,-2.786539077758789,-0.002226976677775383,,,,,,,,
1771017922.2948105,ATTITUDE,,,,,,,,,-0.003763788379728794,-0.017671195790171623,-2.7870688438415527,0.0009097493602894247,,,,,,,,
1771017922.5266213,ATTITUDE,,,,,,,,,-0.003794573014602065,-0.017588941380381584,-2.78747820854187,0.001334586413577199,,,,,,,,
1771017922.7395754,ATTITUDE,,,,,,,,,-0.0038028189446777105,-0.01753748580813408,-2.787771701812744,0.0013310184003785253,,,,,,,,
1771017923.019393,ATTITUDE,,,,,,,,,-0.003862977959215641,-0.017469117417931557,-2.788031816482544,0.00020295014837756753,,,,,,,,
1771017923.2356977,ATTITUDE,,,,,,,,,-0.003876636503264308,-0.017398029565811157,-2.788443088531494,-0.000237024636589922,,,,,,,,
1771017923.4674878,ATTITUDE,,,,,,,,,-0.003908117767423391,-0.01730978675186634,-2.788780689239502,0.001006719539873302,,,,,,,,
1771017923.671807,ATTITUDE,,,,,,,,,-0.003892718581482768,-0.017244672402739525,-2.7891578674316406,-0.00011672287655528635,,,,,,,,
1771017923.9685585,ATTITUDE,,,,,,,,,-0.0039062178693711758,-0.01716816984117031,-2.78953218460083,-0.00035945046693086624,,,,,,,,
1771017924.1731613,ATTITUDE,,,,,,,,,-0.003934118431061506,-0.01711566187441349,-2.789785146713257,0.0007394918939098716,,,,,,,,
1771017924.4164152,ATTITUDE,,,,,,,,,-0.0039578331634402275,-0.017072463408112526,-2.7901177406311035,-0.00014029050362296402,,,,,,,,
1771017924.626255,ATTITUDE,,,,,,,,,-0.003968317527323961,-0.016995694488286972,-2.790510892868042,-0.0006032767705619335,,,,,,,,
1771017924.864316,ATTITUDE,,,,,,,,,-0.004056064411997795,-0.016905665397644043,-2.7907276153564453,0.0006259183865040541,,,,,,,,
1771017925.022361,ALTITUDE,,,,,,,,598.5065307617188,,,,,,,,,,,,
1771017925.0463648,LOCAL_POSITION_NED,,,,,,,,,,,,,,23.027971267700195,11.62486457824707,-0.306880384683609,,,,
1771017925.0707998,SERVO_OUTPUT_RAW,,,,0,0,0,0,,,,,,,,,,,,,
1771017925.1248035,ATTITUDE,,,,,,,,,-0.00404230784624815,-0.016862208023667336,-2.791020631790161,0.0005779720377177,,,,,,,,
1771017925.3164542,ATTITUDE,,,,,,,,,-0.004069410730153322,-0.016865544021129608,-2.7914223670959473,-0.00017186565673910081,,,,,,,,
1771017925.5635543,ATTITUDE,,,,,,,,,-0.00409238925203681,-0.016849474981427193,-2.7919507026672363,-7.685209857299924e-05,,,,,,,,
1771017925.814542,ATTITUDE,,,,,,,,,-0.004081045743077993,-0.01685156486928463,-2.792372465133667,-0.0012066520284861326,,,,,,,,
1771017926.0122843,ATTITUDE,,,,,,,,,-0.004093620926141739,-0.01682417467236519,-2.7927372455596924,-0.00010864189243875444,,,,,,,,
1771017926.2050476,ATTITUDE,,,,,,,,,-0.004139657132327557,-0.016788650304079056,-2.793170928955078,0.0004549129225779325,,,,,,,,
1771017926.4731364,ATTITUDE,,,,,,,,,-0.004161201883107424,-0.016709910705685616,-2.793473243713379,0.001594129716977477,,,,,,,,
1771017926.7166483,ATTITUDE,,,,,,,,,-0.004231628030538559,-0.016631456092000008,-2.793771743774414,6.789330655010417e-05,,,,,,,,
1771017926.9655855,ATTITUDE,,,,,,,,,-0.0042328606359660625,-0.016568604856729507,-2.7939934730529785,-0.000534391263499856,,,,,,,,
1771017927.1881652,ATTITUDE,,,,,,,,,-0.00427480461075902,-0.016559680923819542,-2.7943851947784424,-0.0022243810817599297,,,,,,,,
1771017927.4217298,ATTITUDE,,,,,,,,,-0.004275856539607048,-0.016560401767492294,-2.7948262691497803,-0.0005916974041610956,,,,,,,,
1771017927.6012833,ATTITUDE,,,,,,,,,-0.0042124902829527855,-0.01659371890127659,-2.7952041625976562,-0.000120078373583965,,,,,,,,
1771017927.8456485,ATTITUDE,,,,,,,,,-0.004089183174073696,-0.016547895967960358,-2.7955353260040283,0.0010905765229836106,,,,,,,,
1771017928.0629578,ATTITUDE,,,,,,,,,-0.003926663193851709,-0.01652165688574314,-2.7957849502563477,-0.00010058529733214527,,,,,,,,
1771017928.358679,ATTITUDE,,,,,,,,,-0.003864854574203491,-0.016432691365480423,-2.796098470687866,-0.00015900454309303313,,,,,,,,
1771017928.4875276,ALTITUDE,,,,,,,,598.4985961914062,,,,,,,,,,,,
1771017928.5115223,LOCAL_POSITION_NED,,,,,,,,,,,,,,23.028535842895508,11.625129699707031,-0.4118528366088867,,,,
1771017928.535535,SERVO_OUTPUT_RAW,,,,0,0,0,0,,,,,,,,,,,,,
1771017928.5895243,ATTITUDE,,,,,,,,,-0.0036913626827299595,-0.0164252370595932,-2.796311140060425,0.0006457875133492053,,,,,,,,
1771017928.8237648,ATTITUDE,,,,,,,,,-0.0035004240926355124,-0.01638456992805004,-2.796464443206787,-0.0014886751305311918,,,,,,,,
1771017928.8357673,BATTERY_STATUS,11.477,0.0,58,,,,,,,,,,,,,,,,,
1771017929.0058665,ATTITUDE,,,,,,,,,-0.0033009026665240526,-0.016394205391407013,-2.796525239944458,0.00038570488686673343,,,,,,,,
1771017929.2613306,ATTITUDE,,,,,,,,,-0.003111357567831874,-0.01636982522904873,-2.796577215194702,-0.0003998733882326633,,,,,,,,
1771017929.493636,ATTITUDE,,,,,,,,,-0.002974154893308878,-0.01632930338382721,-2.7964770793914795,0.0009991907281801105,,,,,,,,
1771017929.7311065,ATTITUDE,,,,,,,,,-0.0028247719164937735,-0.01631440408527851,-2.796316623687744,-0.001162902219220996,,,,,,,,
1771017929.913701,ATTITUDE,,,,,,,,,-0.002674960298463702,-0.0162697471678257,-2.7962419986724854,-0.001064356998540461,,,,,,,,
1771017930.2212608,ATTITUDE,,,,,,,,,-0.002553662983700633,-0.01629170961678028,-2.796104907989502,0.0010441828053444624,,,,,,,,
1771017930.4019578,ATTITUDE,,,,,,,,,-0.0024407089222222567,-0.01631157472729683,-2.795834541320801,-0.00021668057888746262,,,,,,,,
1771017930.657966,ATTITUDE,,,,,,,,,-0.0023329313844442368,-0.016272224485874176,-2.7954366207122803,-0.0006350176990963519,,,,,,,,
1771017930.8891625,ATTITUDE,,,,,,,,,-0.002286102157086134,-0.016225263476371765,-2.7950432300567627,0.0010757790878415108,,,,,,,,
1771017930.979261,VIBRATION,,,,,,,,,,,,,,,,,4.617614624002897e-11,0.0023143452126532793,0.029996955767273903,
1771017931.147524,ATTITUDE,,,,,,,,,-0.0022397893480956554,-0.016178544610738754,-2.7948100566864014,-0.00047126272693276405,,,,,,,,
1771017931.3540876,ATTITUDE,,,,,,,,,-0.0021576976869255304,-0.01612820103764534,-2.7946414947509766,0.001145426882430911,,,,,,,,
1771017931.6092477,ATTITUDE,,,,,,,,,-0.002103419043123722,-0.016012173146009445,-2.794408082962036,-0.000417973380535841,,,,,,,,
1771017931.789811,ATTITUDE,,,,,,,,,-0.0020169990602880716,-0.015968063846230507,-2.7941370010375977,0.00015653923037461936,,,,,,,,
1771017931.929164,ALTITUDE,,,,,,,,598.308349609375,,,,,,,,,,,,
1771017931.9601636,LOCAL_POSITION_NED,,,,,,,,,,,,,,23.029861450195312,11.619338989257812,-0.46082961559295654,,,,
1771017931.9831636,SERVO_OUTPUT_RAW,,,,0,0,0,0,,,,,,,,,,,,,
1771017932.08331,ATTITUDE,,,,,,,,,-0.00200945558026433,-0.01599009893834591,-2.7938246726989746,0.0002523119328543544,,,,,,,,
1771017932.2754695,ATTITUDE,,,,,,,,,-0.002002332592383027,-0.015961702913045883,-2.7935009002685547,0.0005994472303427756,,,,,,,,
1771017932.5201874,ATTITUDE,,,,,,,,,-0.002018856815993786,-0.015870260074734688,-2.7932491302490234,-0.0007201153784990311,,,,,,,,
1771017932.7130206,ATTITUDE,,,,,,,,,-0.001960588153451681,-0.015857210382819176,-2.7929906845092773,0.0004674522206187248,,,,,,,,
1771017933.0143332,ATTITUDE,,,,,,,,,-0.0019362673629075289,-0.01580708660185337,-2.7926101684570312,-0.0010702860308811069,,,,,,,,
1771017933.2069118,ATTITUDE,,,,,,,,,-0.001924821874126792,-0.01574697718024254,-2.7923855781555176,0.00042860856046900153,,,,,,,,
1771017933.4264746,ATTITUDE,,,,,,,,,-0.0019343455787748098,-0.015662863850593567,-2.7920925617218018,0.0001364419294986874,,,,,,,,
1771017933.670127,ATTITUDE,,,,,,,,,-0.0019461566116660833,-0.015667423605918884,-2.791874647140503,-0.00029492826433852315,,,,,,,,
1771017933.856699,ATTITUDE,,,,,,,,,-0.001980440691113472,-0.015593188814818859,-2.7915732860565186,-0.00017307540110778064,,,,,,,,
1771017934.1305275,ATTITUDE,,,,,,,,,-0.002047163899987936,-0.015618572942912579,-2.7914440631866455,0.00016802159370854497,,,,,,,,
1771017934.328099,ATTITUDE,,,,,,,,,-0.0020564678125083447,-0.01566636562347412,-2.791374921798706,-0.00035221868893131614,,,,,,,,
1771017934.618145,ATTITUDE,,,,,,,,,-0.0019930212292820215,-0.015746381133794785,-2.7910947799682617,-0.0003289901651442051,,,,,,,,
1771017934.8106666,ATTITUDE,,,,,,,,,-0.00203196844086051,-0.015703964978456497,-2.7907819747924805,0.0003015054971911013,,,,,,,,
1771017935.0919137,ATTITUDE,,,,,,,,,-0.002115905284881592,-0.015664614737033844,-2.7904632091522217,-9.161241177935153e-05,,,,,,,,
1771017935.2834911,ATTITUDE,,,,,,,,,-0.00213108048774302,-0.015604056417942047,-2.790330410003662,0.000411972840083763,,,,,,,,
1771017935.3600264,ALTITUDE,,,,,,,,598.802490234375,,,,,,,,,,,,
1771017935.4886534,LOCAL_POSITION_NED,,,,,,,,,,,,,,23.0301456451416,11.621394157409668,-0.5238185524940491,,,,
1771017935.5126545,SERVO_OUTPUT_RAW,,,,0,0,0,0,,,,,,,,,,,,,
1771017935.5666535,ATTITUDE,,,,,,,,,-0.002173998625949025,-0.015632538124918938,-2.7903013229370117,0.0015092208050191402,,,,,,,,
1771017935.7462327,ATTITUDE,,,,,,,,,-0.002125510247424245,-0.015599582344293594,-2.7903525829315186,-0.0004412864800542593,,,,,,,,
1771017935.8127675,BATTERY_STATUS,11.492,0.0,59,,,,,,,,,,,,,,,,,
1771017936.028317,ATTITUDE,,,,,,,,,-0.0021600727923214436,-0.015492617152631283,-2.7904021739959717,-0.0019493319559842348,,,,,,,,
1771017936.1863008,ATTITUDE,,,,,,,,,-0.002131777349859476,-0.01538161002099514,-2.790466785430908,-0.0007905651582404971,,,,,,,,
1771017936.4748218,ATTITUDE,,,,,,,,,-0.002184253418818116,-0.015272585675120354,-2.7906155586242676,-0.001423544716089964,,,,,,,,
1771017936.6603768,ATTITUDE,,,,,,,,,-0.0021823144052177668,-0.015200339257717133,-2.7907602787017822,2.1368046873249114e-05,,,,,,,,
1771017936.9395123,ATTITUDE,,,,,,,,,-0.0022208334412425756,-0.015170191414654255,-2.790696144104004,-0.0006373354117386043,,,,,,,,
1771017937.157099,ATTITUDE,,,,,,,,,-0.0022344952449202538,-0.015098324976861477,-2.790518283843994,0.0001562771649332717,,,,,,,,
1771017937.4075618,ATTITUDE,,,,,,,,,-0.002224832307547331,-0.015097939409315586,-2.7904508113861084,0.0009505281341262162,,,,,,,,
1771017937.615136,ATTITUDE,,,,,,,,,-0.0022289464250206947,-0.015109363943338394,-2.790377616882324,-0.00023919323575682938,,,,,,,,
1771017937.8535259,ATTITUDE,,,,,,,,,-0.0022731751669198275,-0.015074259601533413,-2.790149688720703,0.0005561745492741466,,,,,,,,
1771017938.0671058,ATTITUDE,,,,,,,,,-0.0022849533706903458,-0.015100318938493729,-2.7898342609405518,-0.000258443906204775,,,,,,,,
1771017938.2713482,ATTITUDE,,,,,,,,,-0.0023367363028228283,-0.015092131681740284,-2.7896180152893066,-0.00044319452717900276,,,,,,,,
1771017938.538444,ATTITUDE,,,,,,,,,-0.002365607302635908,-0.015095903538167477,-2.7894127368927,-7.727161573711783e-05,,,,,,,,
1771017938.822793,ATTITUDE,,,,,,,,,-0.0023809734266251326,-0.01512183528393507,-2.7891807556152344,0.0001617727248230949,,,,,,,,
1771017938.9508317,ALTITUDE,,,,,,,,598.3505859375,,,,,,,,,,,,
1771017938.9748323,LOCAL_POSITION_NED,,,,,,,,,,,,,,23.031126022338867,11.622211456298828,-0.6173042058944702,,,,
1771017939.0048323,SERVO_OUTPUT_RAW,,,,0,0,0,0,,,,,,,,,,,,,
1771017939.0648313,ATTITUDE,,,,,,,,,-0.0024804892018437386,-0.015060905367136002,-2.7889926433563232,0.0012267950223758817,,,,,,,,
1771017939.210891,ATTITUDE,,,,,,,,,-0.002552721416577697,-0.01502299401909113,-2.7889134883880615,-7.184578862506896e-05,,,,,,,,
1771017939.4606159,ATTITUDE,,,,,,,,,-0.0026152918580919504,-0.015049813315272331,-2.7888264656066895,0.0013917934847995639,,,,,,,,
1771017939.7162294,ATTITUDE,,,,,,,,,-0.0025396710261702538,-0.015071163885295391,-2.7886836528778076,0.0009603667422197759,,,,,,,,
1771017939.9610882,ATTITUDE,,,,,,,,,-0.002583996392786503,-0.015053199604153633,-2.788587808609009,-2.832722384482622e-05,,,,,,,,
1771017940.1436477,ATTITUDE,,,,,,,,,-0.00260226521641016,-0.015057168900966644,-2.7885279655456543,0.0009591412381269038,,,,,,,,
1771017940.435782,ATTITUDE,,,,,,,,,-0.0026111225597560406,-0.015125716105103493,-2.788382053375244,-0.0009286005515605211,,,,,,,,
1771017940.6273265,ATTITUDE,,,,,,,,,-0.002709400374442339,-0.015060854144394398,-2.7882206439971924,0.001326757250353694,,,,,,,,
1771017940.860584,ATTITUDE,,,,,,,,,-0.0027678911574184895,-0.015053816139698029,-2.7882182598114014,-0.0002783784584607929,,,,,,,,
1771017941.086258,ATTITUDE,,,,,,,,,-0.0028959859628230333,-0.015008652582764626,-2.788278579711914,0.0006211812724359334,,,,,,,,
1771017941.3308039,ATTITUDE,,,,,,,,,-0.0029248464852571487,-0.015044846571981907,-2.788403272628784,-0.0004588700830936432,,,,,,,,
1771017941.5626752,ATTITUDE,,,,,,,,,-0.0030514048412442207,-0.015029874630272388,-2.78839111328125,-0.001357492059469223,,,,,,,,
1771017941.8068056,ATTITUDE,,,,,,,,,-0.003091685241088271,-0.015063696540892124,-2.788270950317383,0.0014050116296857595,,,,,,,,
1771017942.0223808,ATTITUDE,,,,,,,,,-0.003159752581268549,-0.014994502067565918,-2.7881596088409424,4.46476333308965e-05,,,,,,,,
1771017942.2660108,ATTITUDE,,,,,,,,,-0.0031966641545295715,-0.01497633010149002,-2.7882370948791504,-0.0010480291675776243,,,,,,,,
1771017942.400061,ALTITUDE,,,,,,,,598.173583984375,,,,,,,,,,,,
1771017942.4240632,LOCAL_POSITION_NED,,,,,,,,,,,,,,23.02938461303711,11.6248140335083,-0.6237386465072632,,,,
1771017942.4480667,SERVO_OUTPUT_RAW,,,,0,0,0,0,,,,,,,,,,,,,
1771017942.502061,ATTITUDE,,,,,,,,,-0.003242194652557373,-0.014913205988705158,-2.7882578372955322,0.00032363150967285037,,,,,,,,
1771017942.7343285,ATTITUDE,,,,,,,,,-0.0032925663981586695,-0.014928558841347694,-2.788322687149048,-0.00018510282097849995,,,,,,,,
1771017942.746332,BATTERY_STATUS,11.485,0.0,59,,,,,,,,,,,,,,,,,
1771017942.9748845,ATTITUDE,,,,,,,,,-0.0033492466900497675,-0.014835238456726074,-2.7883591651916504,0.00017470844613853842,,,,,,,,
1771017943.224003,ATTITUDE,,,,,,,,,-0.00337393581867218,-0.014799218624830246,-2.7882797718048096,-0.0002556676627136767,,,,,,,,
1771017943.4171646,ATTITUDE,,,,,,,,,-0.003383864415809512,-0.014792303554713726,-2.7881317138671875,-0.0005400868831202388,,,,,,,,
1771017943.7010028,ATTITUDE,,,,,,,,,-0.0034763573203235865,-0.014713536016643047,-2.787963390350342,-0.00024090161605272442,,,,,,,,
1771017943.8657165,ATTITUDE,,,,,,,,,-0.0034624787513166666,-0.01471320353448391,-2.7880139350891113,-0.0005121163558214903,,,,,,,,
1771017944.1275535,ATTITUDE,,,,,,,,,-0.0035022825468331575,-0.014715870842337608,-2.788163185119629,-0.0001859171170508489,,,,,,,,
1771017944.3194773,ATTITUDE,,,,,,,,,-0.0035511122550815344,-0.014679496176540852,-2.7881362438201904,-0.002495083725079894,,,,,,,,
1771017944.5776727,ATTITUDE,,,,,,,,,-0.0036071629729121923,-0.014633812010288239,-2.7879385948181152,0.0006121406331658363,,,,,,,,
1771017944.8094943,ATTITUDE,,,,,,,,,-0.0036237507592886686,-0.01457136683166027,-2.7877261638641357,0.00017096933152060956,,,,,,,,
1771017945.0681076,ATTITUDE,,,,,,,,,-0.0036007019225507975,-0.014583544805645943,-2.787590980529785,-0.0013293204829096794,,,,,,,,
1771017945.2726622,ATTITUDE,,,,,,,,,-0.003656913060694933,-0.014616275206208229,-2.7874364852905273,0.00024642448988743126,,,,,,,,
1771017945.488244,ATTITUDE,,,,,,,,,-0.003644341602921486,-0.01463890727609396,-2.787266731262207,-0.0008660915773361921,,,,,,,,
1771017945.721341,ATTITUDE,,,,,,,,,-0.0036430826876312494,-0.014707649126648903,-2.787175178527832,-0.0008822157979011536,,,,,,,,
1771017945.8493948,ALTITUDE,,,,,,,,598.3453369140625,,,,,,,,,,,,
1771017945.8793955,LOCAL_POSITION_NED,,,,,,,,,,,,,,23.030942916870117,11.626111030578613,-0.6063764691352844,,,,
1771017945.9033933,SERVO_OUTPUT_RAW,,,,0,0,0,0,,,,,,,,,,,,,
1771017945.969392,ATTITUDE,,,,,,,,,-0.0036285880487412214,-0.014733612537384033,-2.7871572971343994,-0.0015675215981900692,,,,,,,,
1771017946.2011845,ATTITUDE,,,,,,,,,-0.0036526580806821585,-0.014745943248271942,-2.787163496017456,-0.00013347507047001272,,,,,,,,
1771017946.405756,ATTITUDE,,,,,,,,,-0.003666491014882922,-0.014712889678776264,-2.787125587463379,-0.0002484822762198746,,,,,,,,
1771017946.649832,ATTITUDE,,,,,,,,,-0.00371701386757195,-0.01464850828051567,-2.7871053218841553,0.0009825698798522353,,,,,,,,
1771017946.8809302,ATTITUDE,,,,,,,,,-0.0036362081300467253,-0.01466551423072815,-2.787187099456787,0.0004005511000286788,,,,,,,,
1771017947.125031,ATTITUDE,,,,,,,,,-0.003551640547811985,-0.014680515974760056,-2.787168025970459,-0.0010555462213233113,,,,,,,,
1771017947.3595955,ATTITUDE,,,,,,,,,-0.0034043791238218546,-0.014634707942605019,-2.7871253490448,-0.0011698028538376093,,,,,,,,
1771017947.6076782,ATTITUDE,,,,,,,,,-0.0032090756576508284,-0.0146165257319808,-2.7870981693267822,-0.0016593572217971087,,,,,,,,
1771017947.7872384,ATTITUDE,,,,,,,,,-0.0030122629832476377,-0.014562026597559452,-2.787057399749756,0.0003944736090488732,,,,,,,,
1771017948.061366,ATTITUDE,,,,,,,,,-0.00276746554300189,-0.014523209072649479,-2.786947011947632,-0.0017261269968003035,,,,,,,,
1771017948.2535198,ATTITUDE,,,,,,,,,-0.0025262022390961647,-0.0145353302359581,-2.787022590637207,-0.0011471316684037447,,,,,,,,
1771017948.5428982,ATTITUDE,,,,,,,,,-0.00233514909632504,-0.014499489217996597,-2.7870047092437744,0.0013701387215405703,,,,,,,,
1771017948.7414882,ATTITUDE,,,,,,,,,-0.0021773511543869972,-0.014460394158959389,-2.787069320678711,-0.0007043632213026285,,,,,,,,
1771017949.0155654,ATTITUDE,,,,,,,,,-0.0019799182191491127,-0.014374418184161186,-2.7872872352600098,0.0016101445071399212,,,,,,,,
1771017949.1994889,ATTITUDE,,,,,,,,,-0.0018169396789744496,-0.014383251778781414,-2.787566900253296,-0.0018407132010906935,,,,,,,,
1771017949.3395264,ALTITUDE,,,,,,,,598.099609375,,,,,,,,,,,,
1771017949.363527,LOCAL_POSITION_NED,,,,,,,,,,,,,,23.033504486083984,11.62006664276123,-0.5434973239898682,,,,
1771017949.3875291,SERVO_OUTPUT_RAW,,,,0,0,0,0,,,,,,,,,,,,,
1771017949.4415276,ATTITUDE,,,,,,,,,-0.0017009192379191518,-0.014438553713262081,-2.787738561630249,1.8998063751496375e-05,,,,,,,,
1771017949.6736178,ATTITUDE,,,,,,,,,-0.0016388603253290057,-0.014457168988883495,-2.787928819656372,-0.0004986050189472735,,,,,,,,
1771017949.6856177,BATTERY_STATUS,11.495,0.0,59,,,,,,,,,,,,,,,,,
1771017949.9497042,ATTITUDE,,,,,,,,,-0.001589759485796094,-0.01444369088858366,-2.788078546524048,0.00013516575563699007,,,,,,,,
1771017950.153337,ATTITUDE,,,,,,,,,-0.0015511420788243413,-0.014460577629506588,-2.788421630859375,-0.0005089400219731033,,,,,,,,
1771017950.3969705,ATTITUDE,,,,,,,,,-0.0014787862310186028,-0.01448049396276474,-2.788712501525879,-0.00023471751774195582,,,,,,,,
1771017950.629168,ATTITUDE,,,,,,,,,-0.0014875066699460149,-0.014549480751156807,-2.788978338241577,-0.0008813659660518169,,,,,,,,
1771017950.8567421,ATTITUDE,,,,,,,,,-0.0014667134964838624,-0.014562943950295448,-2.7891955375671387,0.0006508796941488981,,,,,,,,
1771017951.0603008,ATTITUDE,,,,,,,,,-0.001467474503442645,-0.014540583826601505,-2.7895216941833496,-0.0004645206790883094,,,,,,,,
1771017951.2524257,ATTITUDE,,,,,,,,,-0.001504084444604814,-0.014508189633488655,-2.789775848388672,-0.0005654905689880252,,,,,,,,
1771017951.5602458,ATTITUDE,,,,,,,,,-0.0014905137941241264,-0.014501508325338364,-2.7900328636169434,0.00041854107985273004,,,,,,,,
1771017951.7923377,ATTITUDE,,,,,,,,,-0.0015309217851608992,-0.01448475755751133,-2.7902848720550537,-0.00018147242371924222,,,,,,,,
