Timestamp,Message Type,Voltage (V),Current (A),Remaining (%),Servo1 Output,Servo2 Output,Servo3 Output,Servo4 Output,Altitude (m),Roll,Pitch,Yaw,Acceleration Z (m/s^2),ESC Data,ESC Info
1771225745.5126812,MISSION_CURRENT,,,,,,,,,,,,,,
1771225745.5766857,GPS_RAW_INT,,,,,,,,,,,,,,
1771225745.6413999,ATTITUDE,,,,,,,,,0.008863462135195732,-0.018744783475995064,-0.00041351071558892727,,,
1771225745.7597141,BATTERY_STATUS,12.026,0.0,68,,,,,,,,,,,
1771225745.7717211,ESTIMATOR_STATUS,,,,,,,,,,,,,,
1771225745.7896533,ATTITUDE_QUATERNION,,,,,,,,,,,,,,
1771225745.853431,ATTITUDE,,,,,,,,,0.008855431340634823,-0.018613066524267197,-0.0003822781436610967,,,
1771225745.9753678,VFR_HUD,,,,,,,,,,,,,,
1771225746.091246,ATTITUDE,,,,,,,,,0.008786918595433235,-0.018585126847028732,-0.00041752829565666616,,,
1771225746.103244,ATTITUDE_QUATERNION,,,,,,,,,,,,,,
1771225746.222326,GPS_RAW_INT,,,,,,,,,,,,,,
1771225746.28585,ATTITUDE,,,,,,,,,0.008768457919359207,-0.018490586429834366,-0.00040342233842238784,,,
1771225746.4093463,ATTITUDE_QUATERNION,,,,,,,,,,,,,,
1771225746.4201477,HEARTBEAT,,,,,,,,,,,,,,
1771225746.484218,ATTITUDE,,,,,,,,,0.008718287572264671,-0.018459059298038483,-0.0003518292505759746,,,
1771225746.5487123,MISSION_CURRENT,,,,,,,,,,,,,,
1771225746.5607114,RC_CHANNELS,,,,,,,,,,,,,,
1771225746.780693,ATTITUDE,,,,,,,,,0.008626214228570461,-0.018422452732920647,-0.0003391684440430254,,,
1771225746.7921994,ATTITUDE_QUATERNION,,,,,,,,,,,,,,
1771225746.8042126,VFR_HUD,,,,,,,,,,,,,,
1771225746.9199824,GPS_RAW_INT,,,,,,,,,,,,,,
1771225746.9319875,ATTITUDE_TARGET,,,,,,,,,,,,,,
1771225746.9446423,ATTITUDE,,,,,,,,,0.008620794862508774,-0.01839940808713436,-0.0003358751710038632,,,
1771225747.11264,ATTITUDE_QUATERNION,,,,,,,,,,,,,,
1771225747.1766493,ATTITUDE,,,,,,,,,0.008580057881772518,-0.01838081143796444,-0.0003122570342384279,,,
1771225747.2985868,RC_CHANNELS,,,,,,,,,,,,,,
1771225747.4726417,ATTITUDE,,,,,,,,,0.008509946055710316,-0.018362652510404587,-0.0002295883750775829,,,
1771225747.484635,HEARTBEAT,,,,,,,,,,,,,,
1771225747.496654,ATTITUDE_QUATERNION,,,,,,,,,,,,,,
1771225747.5086524,PING,,,,,,,,,,,,,,
1771225747.520635,MISSION_CURRENT,,,,,,,,,,,,,,
1771225747.5319612,POSITION_TARGET_LOCAL_NED,,,,,,,,,,,,,,
1771225747.596638,GPS_RAW_INT,,,,,,,,,,,,,,
1771225747.712967,ATTITUDE,,,,,,,,,0.00835738517343998,-0.018294082954525948,-0.00017263479821849614,,,
1771225747.7249687,VFR_HUD,,,,,,,,,,,,,,
1771225747.7890787,ATTITUDE_QUATERNION,,,,,,,,,,,,,,
1771225747.9061031,ATTITUDE,,,,,,,,,0.00825890526175499,-0.018253518268465996,-0.0002652569382917136,,,
1771225747.9696717,RC_CHANNELS,,,,,,,,,,,,,,
1771225748.1436265,GPS_STATUS,,,,,,,,,,,,,,
1771225748.1556883,ATTITUDE,,,,,,,,,0.008193991146981716,-0.018273713067173958,-0.00028262112755328417,,,
1771225748.1676261,ATTITUDE_QUATERNION,,,,,,,,,,,,,,
1771225748.3356504,GPS_RAW_INT,,,,,,,,,,,,,,
1771225748.347672,ATTITUDE,,,,,,,,,0.008107802830636501,-0.01822824589908123,-0.00022790540242567658,,,
1771225748.465094,HEARTBEAT,,,,,,,,,,,,,,
1771225748.4766405,ATTITUDE_QUATERNION,,,,,,,,,,,,,,
1771225748.4886231,MISSION_CURRENT,,,,,,,,,,,,,,
1771225748.552654,VFR_HUD,,,,,,,,,,,,,,
1771225748.5646627,ATTITUDE,,,,,,,,,0.008029110729694366,-0.018246900290250778,-0.00022467812232207507,,,
1771225748.6807363,ATTITUDE_TARGET,,,,,,,,,,,,,,
1771225748.698735,RC_CHANNELS,,,,,,,,,,,,,,
1771225748.872,ATTITUDE,,,,,,,,,0.007912958972156048,-0.018223697319626808,-0.00014401668158825487,,,
1771225748.8850012,ALTITUDE,,,,,,,,601.5108032226562,,,,,,
1771225748.8970053,ATTITUDE_QUATERNION,,,,,,,,,,,,,,
1771225748.9080057,EXTENDED_SYS_STATE,,,,,,,,,,,,,,
1771225748.9207911,LOCAL_POSITION_NED,,,,,,,,,,,,,,
1771225748.9327734,SCALED_PRESSURE,,,,,,,,,,,,,,
1771225748.9444761,SERVO_OUTPUT_RAW,,,,0,0,0,0,,,,,,,
1771225748.9561965,SYS_STATUS,,,,,,,,,,,,,,
1771225748.974573,UNKNOWN_8,,,,,,,,,,,,,,
1771225748.9866018,GPS_RAW_INT,,,,,,,,,,,,,,
1771225749.0496356,ATTITUDE,,,,,,,,,0.007861807011067867,-0.018167106434702873,-0.000170537517988123,,,
1771225749.1720607,ATTITUDE_QUATERNION,,,,,,,,,,,,,,
1771225749.2887366,ATTITUDE,,,,,,,,,0.007827412337064743,-0.0180596262216568,-0.00015715477638877928,,,
1771225749.352719,RC_CHANNELS,,,,,,,,,,,,,,
1771225749.4389691,HEARTBEAT,,,,,,,,,,,,,,
1771225749.4519706,VFR_HUD,,,,,,,,,,,,,,
1771225749.5356083,ATTITUDE,,,,,,,,,0.008000712841749191,-0.018018605187535286,-0.00018191641720477492,,,
1771225749.5476139,ATTITUDE_QUATERNION,,,,,,,,,,,,,,
1771225749.5596101,MISSION_CURRENT,,,,,,,,,,,,,,
1771225749.7326539,GPS_RAW_INT,,,,,,,,,,,,,,
1771225749.7446234,ATTITUDE,,,,,,,,,0.008187764324247837,-0.017933709546923637,-0.00021240503701847047,,,
1771225749.86666,ATTITUDE_QUATERNION,,,,,,,,,,,,,,
1771225749.9823413,ATTITUDE,,,,,,,,,0.008368369191884995,-0.01779022254049778,-0.00015936861746013165,,,
1771225750.0982697,RC_CHANNELS,,,,,,,,,,,,,,
1771225750.213926,ATTITUDE,,,,,,,,,0.00852610357105732,-0.017688481137156487,-0.00018725375412032008,,,
1771225750.2266185,ATTITUDE_QUATERNION,,,,,,,,,,,,,,
1771225750.3426533,VFR_HUD,,,,,,,,,,,,,,
1771225750.4059896,GPS_RAW_INT,,,,,,,,,,,,,,
1771225750.4180915,ATTITUDE_TARGET,,,,,,,,,,,,,,
1771225750.4321275,HEARTBEAT,,,,,,,,,,,,,,
1771225750.4432075,ATTITUDE,,,,,,,,,0.008631926029920578,-0.017622575163841248,-0.00017302918422501534,,,
1771225750.5076017,MISSION_CURRENT,,,,,,,,,,,,,,
1771225750.5708487,ATTITUDE_QUATERNION,,,,,,,,,,,,,,
1771225750.6882637,ATTITUDE,,,,,,,,,0.008690984919667244,-0.017549751326441765,-0.00011358344636391848,,,
1771225750.7525945,RC_CHANNELS,,,,,,,,,,,,,,
1771225750.920595,ATTITUDE,,,,,,,,,0.008244720287621021,-0.01719239167869091,5.0263206503586844e-05,,,
1771225750.938195,ATTITUDE_QUATERNION,,,,,,,,,,,,,,
1771225751.10591,GPS_RAW_INT,,,,,,,,,,,,,,
1771225751.1703107,ATTITUDE,,,,,,,,,0.008241242729127407,-0.017036423087120056,0.0003403755254112184,,,
1771225751.1823175,VFR_HUD,,,,,,,,,,,,,,
1771225751.2466052,ATTITUDE_QUATERNION,,,,,,,,,,,,,,
1771225751.364027,ATTITUDE,,,,,,,,,0.008372286334633827,-0.017093516886234283,0.0005115300882607698,,,
1771225751.4805477,HEARTBEAT,,,,,,,,,,,,,,
1771225751.4985921,RC_CHANNELS,,,,,,,,,,,,,,
1771225751.5626013,MISSION_CURRENT,,,,,,,,,,,,,,
1771225751.5746427,GPS_STATUS,,,,,,,,,,,,,,
1771225751.5925908,ATTITUDE,,,,,,,,,0.008412615396082401,-0.017051763832569122,0.0006132447742857039,,,
1771225751.609596,ATTITUDE_QUATERNION,,,,,,,,,,,,,,
1771225751.7805848,GPS_RAW_INT,,,,,,,,,,,,,,
1771225751.8446224,ATTITUDE,,,,,,,,,0.00850288849323988,-0.01702404022216797,0.0007280475692823529,,,
1771225752.0128655,ATTITUDE_QUATERNION,,,,,,,,,,,,,,
1771225752.0255756,VFR_HUD,,,,,,,,,,,,,,
1771225752.0898106,ATTITUDE,,,,,,,,,0.008413038216531277,-0.01650135964155197,0.0007441139896400273,,,
1771225752.1565936,ATTITUDE_TARGET,,,,,,,,,,,,,,
1771225752.1685746,RC_CHANNELS,,,,,,,,,,,,,,
1771225752.341585,ATTITUDE,,,,,,,,,0.007388693746179342,-0.015830576419830322,0.0030000333208590746,,,
1771225752.3543541,ALTITUDE,,,,,,,,601.4659423828125,,,,,,
1771225752.3665712,ATTITUDE_QUATERNION,,,,,,,,,,,,,,
1771225752.3785865,EXTENDED_SYS_STATE,,,,,,,,,,,,,,
1771225752.3905857,LOCAL_POSITION_NED,,,,,,,,,,,,,,
1771225752.4025793,SCALED_PRESSURE,,,,,,,,,,,,,,
1771225752.4145806,SERVO_OUTPUT_RAW,,,,598,716,666,785,,,,,,,
1771225752.4319777,SYS_STATUS,,,,,,,,,,,,,,
1771225752.4445026,UNKNOWN_8,,,,,,,,,,,,,,
1771225752.456286,HEARTBEAT,,,,,,,,,,,,,,
1771225752.4682868,GPS_RAW_INT,,,,,,,,,,,,,,
1771225752.5325906,ATTITUDE,,,,,,,,,0.006585146300494671,-0.016147809103131294,0.005802111700177193,,,
1771225752.5445821,MISSION_CURRENT,,,,,,,,,,,,,,
1771225752.6605878,ATTITUDE_QUATERNION,,,,,,,,,,,,,,
1771225752.7239158,BATTERY_STATUS,11.812,6.66,64,,,,,,,,,,,
1771225752.735931,ESTIMATOR_STATUS,,,,,,,,,,,,,,
1771225752.748584,ATTITUDE,,,,,,,,,0.0022620412055402994,-0.013926575891673565,0.01349594909697771,,,
1771225752.86608,RC_CHANNELS,,,,,,,,,,,,,,
1771225752.930865,VFR_HUD,,,,,,,,,,,,,,
1771225753.0502052,ATTITUDE,,,,,,,,,0.0020950681064277887,-0.012419364415109158,0.034619059413671494,,,
1771225753.0622094,ATTITUDE_QUATERNION,,,,,,,,,,,,,,
1771225753.1844351,GPS_RAW_INT,,,,,,,,,,,,,,
1771225753.2484632,ATTITUDE,,,,,,,,,-0.0067241135984659195,-0.011983887292444706,0.07043468952178955,,,
1771225753.3704734,ATTITUDE_QUATERNION,,,,,,,,,,,,,,
1771225753.4338346,HEARTBEAT,,,,,,,,,,,,,,
1771225753.4981258,ATTITUDE,,,,,,,,,-0.006637190002948046,-0.013699693605303764,0.12830516695976257,,,
1771225753.5625777,RC_CHANNELS,,,,,,,,,,,,,,
1771225753.5745866,MISSION_CURRENT,,,,,,,,,,,,,,
1771225753.6912653,ATTITUDE,,,,,,,,,-0.0011328302789479494,-0.014548446983098984,0.20551572740077972,,,
1771225753.7034717,ATTITUDE_QUATERNION,,,,,,,,,,,,,,
1771225753.8195975,VFR_HUD,,,,,,,,,,,,,,
1771225753.8371274,GPS_RAW_INT,,,,,,,,,,,,,,
1771225753.901556,ATTITUDE_TARGET,,,,,,,,,,,,,,
1771225753.913369,ATTITUDE,,,,,,,,,-0.025378374382853508,-0.003048109821975231,0.3096952438354492,,,
1771225754.081544,ATTITUDE_QUATERNION,,,,,,,,,,,,,,
1771225754.1454253,ATTITUDE,,,,,,,,,-0.018643440678715706,-0.011943359859287739,0.46252501010894775,,,
1771225754.21306,RC_CHANNELS,,,,,,,,,,,,,,
1771225754.3824065,ATTITUDE,,,,,,,,,-0.007000921759754419,-0.00969102792441845,0.6798352003097534,,,
1771225754.4460785,ATTITUDE_QUATERNION,,,,,,,,,,,,,,
1771225754.4580836,HEARTBEAT,,,,,,,,,,,,,,
1771225754.5746958,GPS_RAW_INT,,,,,,,,,,,,,,
1771225754.5924513,MISSION_CURRENT,,,,,,,,,,,,,,
1771225754.604542,ATTITUDE,,,,,,,,,-0.0018412399804219604,-0.01534583605825901,0.9868552684783936,,,
1771225754.6682475,VFR_HUD,,,,,,,,,,,,,,
1771225754.7380226,ATTITUDE_QUATERNION,,,,,,,,,,,,,,
1771225754.9077606,ATTITUDE,,,,,,,,,-0.0045908717438578606,-0.015511727891862392,1.403908371925354,,,
1771225754.919773,RC_CHANNELS,,,,,,,,,,,,,,
1771225755.1405654,GPS_STATUS,,,,,,,,,,,,,,
1771225755.1585696,ATTITUDE,,,,,,,,,-0.005851763766258955,-0.01728169620037079,1.868204116821289,,,
1771225755.171558,ATTITUDE_QUATERNION,,,,,,,,,,,,,,
1771225755.23403,GPS_RAW_INT,,,,,,,,,,,,,,
1771225755.3055508,ATTITUDE,,,,,,,,,-0.010240781120955944,-0.011337362229824066,2.425999879837036,,,
1771225755.4746528,HEARTBEAT,,,,,,,,,,,,,,
1771225755.486744,ATTITUDE_QUATERNION,,,,,,,,,,,,,,
1771225755.4982712,VFR_HUD,,,,,,,,,,,,,,
1771225755.5624282,ATTITUDE,,,,,,,,,-0.009027288295328617,-0.004668915644288063,3.0449581146240234,,,
1771225755.626107,MISSION_CURRENT,,,,,,,,,,,,,,
1771225755.638188,ATTITUDE_TARGET,,,,,,,,,,,,,,
1771225755.6501884,RC_CHANNELS,,,,,,,,,,,,,,
1771225755.7701428,ATTITUDE,,,,,,,,,-0.0053896838799119,-0.0035300678573548794,-2.537163257598877,,,
1771225755.886558,ALTITUDE,,,,,,,,601.1329956054688,,,,,,
1771225755.9045553,ATTITUDE_QUATERNION,,,,,,,,,,,,,,
1771225755.9168684,EXTENDED_SYS_STATE,,,,,,,,,,,,,,
1771225755.927878,LOCAL_POSITION_NED,,,,,,,,,,,,,,
1771225755.9408767,SCALED_PRESSURE,,,,,,,,,,,,,,
1771225755.9525325,SERVO_OUTPUT_RAW,,,,871,1126,988,1242,,,,,,,
1771225755.9645407,SYS_STATUS,,,,,,,,,,,,,,
1771225755.976535,UNKNOWN_8,,,,,,,,,,,,,,
1771225755.9945662,GPS_RAW_INT,,,,,,,,,,,,,,
1771225756.0065775,ATTITUDE,,,,,,,,,-0.0026559345424175262,0.003798574674874544,-1.741100788116455,,,
1771225756.1240947,ATTITUDE_QUATERNION,,,,,,,,,,,,,,
1771225756.2423813,ATTITUDE,,,,,,,,,0.0011821415973827243,0.0008541609859094024,-0.9412025213241577,,,
1771225756.358694,RC_CHANNELS,,,,,,,,,,,,,,
1771225756.3765247,VFR_HUD,,,,,,,,,,,,,,
1771225756.4405181,HEARTBEAT,,,,,,,,,,,,,,
1771225756.5045693,ATTITUDE,,,,,,,,,-0.0003878121788147837,-0.00885229092091322,-0.07657831907272339,,,
1771225756.516572,ATTITUDE_QUATERNION,,,,,,,,,,,,,,
1771225756.5802188,MISSION_CURRENT,,,,,,,,,,,,,,
1771225756.6505198,GPS_RAW_INT,,,,,,,,,,,,,,
1771225756.7139497,ATTITUDE,,,,,,,,,-0.001937897759489715,-0.003718065097928047,0.8110964894294739,,,
1771225756.836555,ATTITUDE_QUATERNION,,,,,,,,,,,,,,
1771225756.9535792,ATTITUDE,,,,,,,,,-0.004736509174108505,-0.006860998924821615,1.8041744232177734,,,
1771225757.0235162,RC_CHANNELS,,,,,,,,,,,,,,
1771225757.1932592,ATTITUDE,,,,,,,,,-0.0033179023303091526,-0.00635682325810194,2.9064600467681885,,,
1771225757.2047677,ATTITUDE_QUATERNION,,,,,,,,,,,,,,
1771225757.2760224,VFR_HUD,,,,,,,,,,,,,,
1771225757.3925579,ATTITUDE_TARGET,,,,,,,,,,,,,,
1771225757.4105291,GPS_RAW_INT,,,,,,,,,,,,,,
1771225757.422532,ATTITUDE,,,,,,,,,0.0001365480711683631,0.00835354533046484,-2.2180423736572266,,,
1771225757.4345052,HEARTBEAT,,,,,,,,,,,,,,
1771225757.4458404,PING,,,,,,,,,,,,,,
1771225757.51061,ATTITUDE_QUATERNION,,,,,,,,,,,,,,
1771225757.6285212,MISSION_CURRENT,,,,,,,,,,,,,,
1771225757.6405804,ATTITUDE,,,,,,,,,0.004351045470684767,0.00449680769816041,-0.9969099164009094,,,
1771225757.756437,RC_CHANNELS,,,,,,,,,,,,,,
1771225757.8750596,ATTITUDE,,,,,,,,,0.002295207930728793,0.0006536118453368545,0.37579241394996643,,,
1771225757.887499,ATTITUDE_QUATERNION,,,,,,,,,,,,,,
1771225758.0619667,GPS_RAW_INT,,,,,,,,,,,,,,
1771225758.1265042,VFR_HUD,,,,,,,,,,,,,,
1771225758.3486154,ATTITUDE,,,,,,,,,0.01478871051222086,0.014397107996046543,-2.806767225265503,,,
1771225758.4135427,RC_CHANNELS,,,,,,,,,,,,,,
1771225758.477575,HEARTBEAT,,,,,,,,,,,,,,
1771225758.5935414,GPS_STATUS,,,,,,,,,,,,,,
1771225758.60549,ATTITUDE,,,,,,,,,0.011290667578577995,0.0026528406888246536,-1.1568427085876465,,,
1771225758.623451,ATTITUDE_QUATERNION,,,,,,,,,,,,,,
1771225758.635508,MISSION_CURRENT,,,,,,,,,,,,,,
1771225758.699493,GPS_RAW_INT,,,,,,,,,,,,,,
1771225758.814963,ATTITUDE,,,,,,,,,0.004990153014659882,0.007010644767433405,0.6175702810287476,,,
1771225758.9324908,ATTITUDE_QUATERNION,,,,,,,,,,,,,,
1771225759.018039,VFR_HUD,,,,,,,,,,,,,,
1771225759.0310407,ATTITUDE,,,,,,,,,0.011302224360406399,0.0069364202208817005,2.4217538833618164,,,
1771225759.099493,ATTITUDE_TARGET,,,,,,,,,,,,,,
1771225759.11149,RC_CHANNELS,,,,,,,,,,,,,,
1771225759.3330479,ATTITUDE,,,,,,,,,0.00283253937959671,0.0008060699910856783,-1.9283897876739502,,,
1771225759.3453295,ATTITUDE_QUATERNION,,,,,,,,,,,,,,
1771225759.3564205,ALTITUDE,,,,,,,,601.5821533203125,,,,,,
1771225759.3680024,EXTENDED_SYS_STATE,,,,,,,,,,,,,,
1771225759.3864887,LOCAL_POSITION_NED,,,,,,,,,,,,,,
1771225759.3981557,SCALED_PRESSURE,,,,,,,,,,,,,,
1771225759.4104795,SERVO_OUTPUT_RAW,,,,1130,1175,1086,1131,,,,,,,
1771225759.4224863,SYS_STATUS,,,,,,,,,,,,,,
1771225759.4344797,UNKNOWN_8,,,,,,,,,,,,,,
1771225759.4464984,GPS_RAW_INT,,,,,,,,,,,,,,
1771225759.4584785,HEARTBEAT,,,,,,,,,,,,,,
1771225759.4758213,ATTITUDE,,,,,,,,,0.007548342924565077,0.0036557591520249844,0.15657709538936615,,,
1771225759.6476061,ATTITUDE_QUATERNION,,,,,,,,,,,,,,
1771225759.6655395,MISSION_CURRENT,,,,,,,,,,,,,,
1771225759.6775398,BATTERY_STATUS,11.409,14.57,34,,,,,,,,,,,
1771225759.6894755,ESTIMATOR_STATUS,,,,,,,,,,,,,,
1771225759.7568965,ATTITUDE,,,,,,,,,0.009352605789899826,0.011012297123670578,2.145538330078125,,,
1771225759.8207483,RC_CHANNELS,,,,,,,,,,,,,,
1771225759.8334737,VFR_HUD,,,,,,,,,,,,,,
1771225759.950457,ATTITUDE,,,,,,,,,0.010757522657513618,-0.0023349907714873552,-2.0462002754211426,,,
1771225759.9619665,ATTITUDE_QUATERNION,,,,,,,,,,,,,,
1771225760.132422,GPS_RAW_INT,,,,,,,,,,,,,,
1771225760.1957662,ATTITUDE,,,,,,,,,-0.004000947345048189,0.0003137968305964023,0.05573149025440216,,,
1771225760.3177087,ATTITUDE_QUATERNION,,,,,,,,,,,,,,
1771225760.4354658,ATTITUDE,,,,,,,,,0.017523204907774925,0.011642618104815483,2.2560935020446777,,,
1771225760.4474735,HEARTBEAT,,,,,,,,,,,,,,
1771225760.45947,RC_CHANNELS,,,,,,,,,,,,,,
1771225760.6267898,MISSION_CURRENT,,,,,,,,,,,,,,
1771225760.6394587,ATTITUDE,,,,,,,,,-0.00041137286461889744,-0.006560128647834063,-1.836049199104309,,,
1771225760.7036376,ATTITUDE_QUATERNION,,,,,,,,,,,,,,
1771225760.715482,VFR_HUD,,,,,,,,,,,,,,
1771225760.8314655,ATTITUDE_TARGET,,,,,,,,,,,,,,
1771225760.8434646,GPS_RAW_INT,,,,,,,,,,,,,,
1771225760.9084594,ATTITUDE,,,,,,,,,0.003918468486517668,0.0038398317992687225,0.5372449159622192,,,
1771225760.9757178,ATTITUDE_QUATERNION,,,,,,,,,,,,,,
1771225761.0909238,ATTITUDE,,,,,,,,,0.00585138751193881,0.0031451100949198008,2.7815451622009277,,,
1771225761.209437,RC_CHANNELS,,,,,,,,,,,,,,
1771225761.3793483,ATTITUDE,,,,,,,,,3.980713154305704e-05,-0.0009157845051959157,-1.1864644289016724,,,
1771225761.391348,ATTITUDE_QUATERNION,,,,,,,,,,,,,,
1771225761.4554844,HEARTBEAT,,,,,,,,,,,,,,
1771225761.5206783,GPS_RAW_INT,,,,,,,,,,,,,,
1771225761.5844555,ATTITUDE,,,,,,,,,0.005305806174874306,0.0008433972834609449,1.1248013973236084,,,
1771225761.596451,VFR_HUD,,,,,,,,,,,,,,
1771225761.6601794,MISSION_CURRENT,,,,,,,,,,,,,,
1771225761.7298677,ATTITUDE_QUATERNION,,,,,,,,,,,,,,
1771225761.8465214,ATTITUDE,,,,,,,,,-0.006784606259316206,0.0012416304089128971,-2.91151762008667,,,
1771225761.8585181,RC_CHANNELS,,,,,,,,,,,,,,
1771225762.079259,GPS_STATUS,,,,,,,,,,,,,,
1771225762.0912685,ATTITUDE,,,,,,,,,0.010186044499278069,0.007939169183373451,-0.5100954174995422,,,
1771225762.1092708,ATTITUDE_QUATERNION,,,,,,,,,,,,,,
1771225762.225489,GPS_RAW_INT,,,,,,,,,,,,,,
1771225762.2907422,ATTITUDE,,,,,,,,,0.019413812085986137,-0.022284919396042824,1.7429934740066528,,,
1771225762.40744,ATTITUDE_QUATERNION,,,,,,,,,,,,,,
1771225762.4186823,HEARTBEAT,,,,,,,,,,,,,,
1771225762.48348,VFR_HUD,,,,,,,,,,,,,,
1771225762.4954474,ATTITUDE,,,,,,,,,0.007987907156348228,0.008665845729410648,-2.257963180541992,,,
1771225762.6114573,ATTITUDE_TARGET,,,,,,,,,,,,,,
1771225762.6234546,RC_CHANNELS,,,,,,,,,,,,,,
1771225762.6354373,MISSION_CURRENT,,,,,,,,,,,,,,
1771225762.8044348,ATTITUDE,,,,,,,,,0.006597051862627268,-0.0037785938475281,-0.023901745676994324,,,
1771225762.8164394,ATTITUDE_QUATERNION,,,,,,,,,,,,,,
1771225762.8284345,ALTITUDE,,,,,,,,601.756591796875,,,,,,
1771225762.83991,EXTENDED_SYS_STATE,,,,,,,,,,,,,,
1771225762.858434,LOCAL_POSITION_NED,,,,,,,,,,,,,,
1771225762.870443,SCALED_PRESSURE,,,,,,,,,,,,,,
1771225762.8816688,SERVO_OUTPUT_RAW,,,,980,952,1200,1173,,,,,,,
1771225762.8944364,SYS_STATUS,,,,,,,,,,,,,,
1771225762.9056358,UNKNOWN_8,,,,,,,,,,,,,,
1771225762.9176474,GPS_RAW_INT,,,,,,,,,,,,,,
1771225762.9825222,ATTITUDE,,,,,,,,,0.0027673281729221344,0.01158993225544691,2.242799997329712,,,
1771225763.0994499,ATTITUDE_QUATERNION,,,,,,,,,,,,,,
1771225763.214692,ATTITUDE,,,,,,,,,0.006291819270700216,-0.023070301860570908,-1.9052925109863281,,,
1771225763.2854338,RC_CHANNELS,,,,,,,,,,,,,,
1771225763.3494344,VFR_HUD,,,,,,,,,,,,,,
1771225763.4183028,ATTITUDE,,,,,,,,,-0.02137409709393978,-0.0015975187998265028,-0.020977918058633804,,,
1771225763.429907,HEARTBEAT,,,,,,,,,,,,,,
1771225763.4429727,ATTITUDE_QUATERNION,,,,,,,,,,,,,,
1771225763.6104307,GPS_RAW_INT,,,,,,,,,,,,,,
1771225763.674478,ATTITUDE,,,,,,,,,0.003516577649861574,-0.004434019792824984,1.5502923727035522,,,
1771225763.6864479,MISSION_CURRENT,,,,,,,,,,,,,,
1771225763.8077092,ATTITUDE_QUATERNION,,,,,,,,,,,,,,
1771225763.8724267,ATTITUDE,,,,,,,,,0.007439983543008566,-0.023684697225689888,2.8314387798309326,,,
1771225763.9945893,RC_CHANNELS,,,,,,,,,,,,,,
1771225764.1684217,ATTITUDE,,,,,,,,,-0.012706801295280457,-0.019411684945225716,-2.503167152404785,,,
1771225764.180422,ATTITUDE_QUATERNION,,,,,,,,,,,,,,
1771225764.2454207,VFR_HUD,,,,,,,,,,,,,,
1771225764.3084304,ATTITUDE_TARGET,,,,,,,,,,,,,,
1771225764.3207572,GPS_RAW_INT,,,,,,,,,,,,,,
1771225764.3327606,ATTITUDE,,,,,,,,,-0.0042144618928432465,-0.005845602601766586,-1.9301701784133911,,,
1771225764.454443,HEARTBEAT,,,,,,,,,,,,,,
1771225764.518413,ATTITUDE_QUATERNION,,,,,,,,,,,,,,
1771225764.640416,ATTITUDE,,,,,,,,,0.004376306664198637,-0.008328765630722046,-1.6920071840286255,,,
1771225764.6524105,RC_CHANNELS,,,,,,,,,,,,,,
1771225764.6644156,MISSION_CURRENT,,,,,,,,,,,,,,
1771225764.831677,ATTITUDE,,,,,,,,,0.006462653633207083,-0.013840530067682266,-1.6833397150039673,,,
1771225764.8439364,ATTITUDE_QUATERNION,,,,,,,,,,,,,,
1771225765.0145674,GPS_RAW_INT,,,,,,,,,,,,,,
1771225765.025947,ATTITUDE,,,,,,,,,0.005473245866596699,-0.015816522762179375,-1.683024287223816,,,
1771225765.0911877,VFR_HUD,,,,,,,,,,,,,,
1771225765.160408,ATTITUDE_QUATERNION,,,,,,,,,,,,,,
1771225765.2764099,ATTITUDE,,,,,,,,,0.004924951586872339,-0.016030950471758842,-1.6830389499664307,,,
1771225765.3404036,RC_CHANNELS,,,,,,,,,,,,,,
1771225765.4570026,HEARTBEAT,,,,,,,,,,,,,,
1771225765.5207012,GPS_STATUS,,,,,,,,,,,,,,
1771225765.5337093,ATTITUDE,,,,,,,,,0.005005653947591782,-0.015784606337547302,-1.682965636253357,,,
1771225765.5458286,ATTITUDE_QUATERNION,,,,,,,,,,,,,,
1771225765.712634,MISSION_CURRENT,,,,,,,,,,,,,,
1771225765.7246344,GPS_RAW_INT,,,,,,,,,,,,,,
1771225765.7366357,ATTITUDE,,,,,,,,,0.005269400775432587,-0.015666570514440536,-1.6828699111938477,,,
1771225765.910948,ATTITUDE_QUATERNION,,,,,,,,,,,,,,
1771225765.9754739,VFR_HUD,,,,,,,,,,,,,,
1771225765.9874783,ATTITUDE,,,,,,,,,0.005527831614017487,-0.015540633350610733,-1.6827185153961182,,,
1771225766.1026483,ATTITUDE_TARGET,,,,,,,,,,,,,,
1771225766.1146479,RC_CHANNELS,,,,,,,,,,,,,,
1771225766.234861,ATTITUDE,,,,,,,,,0.005683284252882004,-0.015626730397343636,-1.6827125549316406,,,
1771225766.2477174,ALTITUDE,,,,,,,,601.5187377929688,,,,,,
1771225766.2593899,ATTITUDE_QUATERNION,,,,,,,,,,,,,,
1771225766.2715325,EXTENDED_SYS_STATE,,,,,,,,,,,,,,
1771225766.2833934,LOCAL_POSITION_NED,,,,,,,,,,,,,,
1771225766.2953534,SCALED_PRESSURE,,,,,,,,,,,,,,
1771225766.3073542,SERVO_OUTPUT_RAW,,,,0,0,0,0,,,,,,,
1771225766.3253593,SYS_STATUS,,,,,,,,,,,,,,
1771225766.3373609,UNKNOWN_8,,,,,,,,,,,,,,
1771225766.4083595,GPS_RAW_INT,,,,,,,,,,,,,,
1771225766.4403596,HEARTBEAT,,,,,,,,,,,,,,
1771225766.5039668,ATTITUDE,,,,,,,,,0.005904706660658121,-0.015548075549304485,-1.6826423406600952,,,
1771225766.5744038,ATTITUDE_QUATERNION,,,,,,,,,,,,,,
1771225766.5864043,BATTERY_STATUS,11.822,0.0,55,,,,,,,,,,,
1771225766.650232,ESTIMATOR_STATUS,,,,,,,,,,,,,,
1771225766.7142477,ATTITUDE,,,,,,,,,0.006232492160052061,-0.01551141683012247,-1.6825236082077026,,,
1771225766.7256758,MISSION_CURRENT,,,,,,,,,,,,,,
1771225766.7377474,RC_CHANNELS,,,,,,,,,,,,,,
1771225766.8553867,VFR_HUD,,,,,,,,,,,,,,
1771225766.9186149,ATTITUDE,,,,,,,,,0.006726771127432585,-0.015434766188263893,-1.6824392080307007,,,
1771225766.9313824,ATTITUDE_QUATERNION,,,,,,,,,,,,,,
1771225767.0999336,GPS_RAW_INT,,,,,,,,,,,,,,
1771225767.1704,ATTITUDE,,,,,,,,,0.007175496779382229,-0.015454627573490143,-1.6824322938919067,,,
1771225767.2342243,ATTITUDE_QUATERNION,,,,,,,,,,,,,,
1771225767.356992,ATTITUDE,,,,,,,,,0.0074479649774730206,-0.015580374747514725,-1.6824181079864502,,,
1771225767.4755778,HEARTBEAT,,,,,,,,,,,,,,
1771225767.486374,PING,,,,,,,,,,,,,,
1771225767.4983377,RC_CHANNELS,,,,,,,,,,,,,,
1771225767.614377,ATTITUDE,,,,,,,,,0.007423479110002518,-0.016215262934565544,-1.6825166940689087,,,
1771225767.6263895,ATTITUDE_QUATERNION,,,,,,,,,,,,,,
1771225767.7426908,VFR_HUD,,,,,,,,,,,,,,
1771225767.7553763,MISSION_CURRENT,,,,,,,,,,,,,,
1771225767.7673774,ATTITUDE_TARGET,,,,,,,,,,,,,,
1771225767.7793803,GPS_RAW_INT,,,,,,,,,,,,,,
1771225767.843141,ATTITUDE,,,,,,,,,0.006860578898340464,-0.017577804625034332,-1.6825001239776611,,,
1771225767.9593728,ATTITUDE_QUATERNION,,,,,,,,,,,,,,
1771225768.0764143,ATTITUDE,,,,,,,,,0.005879661999642849,-0.01928584650158882,-1.6823976039886475,,,
1771225768.1403875,RC_CHANNELS,,,,,,,,,,,,,,
1771225768.308375,ATTITUDE,,,,,,,,,0.00504301069304347,-0.02063077874481678,-1.6822329759597778,,,
1771225768.321562,ATTITUDE_QUATERNION,,,,,,,,,,,,,,
1771225768.4374568,HEARTBEAT,,,,,,,,,,,,,,
1771225768.5013785,GPS_RAW_INT,,,,,,,,,,,,,,
1771225768.565864,ATTITUDE,,,,,,,,,0.004773829597979784,-0.02137760818004608,-1.6822421550750732,,,
1771225768.5830724,VFR_HUD,,,,,,,,,,,,,,
1771225768.6473064,ATTITUDE_QUATERNION,,,,,,,,,,,,,,
1771225768.7113755,MISSION_CURRENT,,,,,,,,,,,,,,
1771225768.7753742,ATTITUDE,,,,,,,,,0.004616617690771818,-0.021474182605743408,-1.6824641227722168,,,
1771225768.8911238,RC_CHANNELS,,,,,,,,,,,,,,
1771225769.06293,GPS_STATUS,,,,,,,,,,,,,,
1771225769.0753531,ATTITUDE,,,,,,,,,0.04075077921152115,-0.019462022930383682,-1.6824586391448975,,,
1771225769.087353,ATTITUDE_QUATERNION,,,,,,,,,,,,,,
1771225769.151112,GPS_RAW_INT,,,,,,,,,,,,,,
1771225769.2153583,ATTITUDE,,,,,,,,,0.02485695108771324,-0.00601654639467597,-1.6804970502853394,,,
1771225769.3868306,ATTITUDE_QUATERNION,,,,,,,,,,,,,,
1771225769.4503553,HEARTBEAT,,,,,,,,,,,,,,
1771225769.4623556,VFR_HUD,,,,,,,,,,,,,,
1771225769.4740212,ATTITUDE,,,,,,,,,-0.01990840584039688,-0.0005776103353127837,-1.6499414443969727,,,
1771225769.538365,ATTITUDE_TARGET,,,,,,,,,,,,,,
1771225769.5503712,RC_CHANNELS,,,,,,,,,,,,,,
1771225769.6660607,ATTITUDE,,,,,,,,,0.03965912014245987,0.07833333313465118,-1.5722097158432007,,,
1771225769.781963,ALTITUDE,,,,,,,,601.9468383789062,,,,,,
1771225769.7999744,ATTITUDE_QUATERNION,,,,,,,,,,,,,,
1771225769.812986,EXTENDED_SYS_STATE,,,,,,,,,,,,,,
1771225769.8249843,LOCAL_POSITION_NED,,,,,,,,,,,,,,
1771225769.8357024,SCALED_PRESSURE,,,,,,,,,,,,,,
1771225769.8488262,SERVO_OUTPUT_RAW,,,,0,0,0,0,,,,,,,
1771225769.860825,SYS_STATUS,,,,,,,,,,,,,,
1771225769.8728259,UNKNOWN_8,,,,,,,,,,,,,,
1771225769.8913617,MISSION_CURRENT,,,,,,,,,,,,,,
1771225769.9033623,GPS_RAW_INT,,,,,,,,,,,,,,
1771225769.9673367,ATTITUDE,,,,,,,,,-0.015306525863707066,0.15391409397125244,-1.5206588506698608,,,
1771225770.0313578,ATTITUDE_QUATERNION,,,,,,,,,,,,,,
1771225770.146824,ATTITUDE,,,,,,,,,-0.021805446594953537,0.12462695688009262,-1.5455617904663086,,,
1771225770.2106893,RC_CHANNELS,,,,,,,,,,,,,,
1771225770.3273532,VFR_HUD,,,,,,,,,,,,,,
1771225770.444059,ATTITUDE,,,,,,,,,0.017035936936736107,-0.027895024046301842,-1.583662986755371,,,
1771225770.4618676,ATTITUDE_QUATERNION,,,,,,,,,,,,,,
1771225770.4741127,HEARTBEAT,,,,,,,,,,,,,,
1771225770.5898926,GPS_RAW_INT,,,,,,,,,,,,,,
1771225770.6018953,ATTITUDE,,,,,,,,,-0.01624276489019394,-0.1313149631023407,-1.6240909099578857,,,
1771225770.7177153,MISSION_CURRENT,,,,,,,,,,,,,,
1771225770.7823358,ATTITUDE_QUATERNION,,,,,,,,,,,,,,
1771225770.9003096,ATTITUDE,,,,,,,,,-0.06183425709605217,-0.14903074502944946,-1.6713025569915771,,,
1771225770.9123378,RC_CHANNELS,,,,,,,,,,,,,,
1771225771.079804,ATTITUDE,,,,,,,,,-0.11622210592031479,-0.13797123730182648,-1.6451616287231445,,,
1771225771.0928042,ATTITUDE_QUATERNION,,,,,,,,,,,,,,
1771225771.2093377,VFR_HUD,,,,,,,,,,,,,,
1771225771.326389,GPS_RAW_INT,,,,,,,,,,,,,,
1771225771.3383894,ATTITUDE_TARGET,,,,,,,,,,,,,,
1771225771.3503232,ATTITUDE,,,,,,,,,-0.1631878912448883,-0.08249115198850632,-1.5474916696548462,,,
1771225771.466328,HEARTBEAT,,,,,,,,,,,,,,
1771225771.4783292,ATTITUDE_QUATERNION,,,,,,,,,,,,,,
1771225771.5483396,ATTITUDE,,,,,,,,,-0.04037237912416458,-0.0051552788354456425,-1.4442927837371826,,,
1771225771.6736014,RC_CHANNELS,,,,,,,,,,,,,,
1771225771.7373521,MISSION_CURRENT,,,,,,,,,,,,,,
1771225771.8013487,ATTITUDE,,,,,,,,,-0.08003906905651093,0.016416678205132484,-1.4022793769836426,,,
1771225771.8133485,ATTITUDE_QUATERNION,,,,,,,,,,,,,,
1771225771.9823208,GPS_RAW_INT,,,,,,,,,,,,,,
1771225771.9943259,ATTITUDE,,,,,,,,,-0.04020830988883972,0.013432753272354603,-1.414351224899292,,,
1771225772.0608609,VFR_HUD,,,,,,,,,,,,,,
1771225772.1782029,ATTITUDE_QUATERNION,,,,,,,,,,,,,,
1771225772.2943244,ATTITUDE,,,,,,,,,-0.0496966578066349,0.02571936696767807,-1.4170992374420166,,,
1771225772.306335,RC_CHANNELS,,,,,,,,,,,,,,
1771225772.4292107,HEARTBEAT,,,,,,,,,,,,,,
1771225772.5442958,GPS_STATUS,,,,,,,,,,,,,,
1771225772.5563016,ATTITUDE,,,,,,,,,-0.05007355660200119,0.053764667361974716,-1.4205845594406128,,,
1771225772.568294,ATTITUDE_QUATERNION,,,,,,,,,,,,,,
1771225772.632333,GPS_RAW_INT,,,,,,,,,,,,,,
1771225772.7477846,ATTITUDE,,,,,,,,,-0.006405966356396675,0.043899934738874435,-1.4613755941390991,,,
1771225772.759794,MISSION_CURRENT,,,,,,,,,,,,,,
1771225772.8238094,ATTITUDE_QUATERNION,,,,,,,,,,,,,,
1771225772.939651,VFR_HUD,,,,,,,,,,,,,,
1771225772.9516535,ATTITUDE,,,,,,,,,-0.03432798758149147,0.008897810243070126,-1.4690462350845337,,,
1771225773.0161746,ATTITUDE_TARGET,,,,,,,,,,,,,,
1771225773.0281765,RC_CHANNELS,,,,,,,,,,,,,,
1771225773.1444273,ATTITUDE,,,,,,,,,0.014353347010910511,-0.014585482887923717,-1.4628665447235107,,,
1771225773.2604964,ALTITUDE,,,,,,,,601.769775390625,,,,,,
1771225773.278499,ATTITUDE_QUATERNION,,,,,,,,,,,,,,
1771225773.2894976,EXTENDED_SYS_STATE,,,,,,,,,,,,,,
1771225773.3024967,LOCAL_POSITION_NED,,,,,,,,,,,,,,
1771225773.3135161,SCALED_PRESSURE,,,,,,,,,,,,,,
1771225773.3254986,SERVO_OUTPUT_RAW,,,,0,0,0,0,,,,,,,
1771225773.338499,SYS_STATUS,,,,,,,,,,,,,,
1771225773.3505013,UNKNOWN_8,,,,,,,,,,,,,,
1771225773.3684814,GPS_RAW_INT,,,,,,,,,,,,,,
1771225773.4318628,ATTITUDE,,,,,,,,,0.009416988119482994,-0.008600255474448204,-1.4638952016830444,,,
1771225773.4442735,HEARTBEAT,,,,,,,,,,,,,,
1771225773.5076795,ATTITUDE_QUATERNION,,,,,,,,,,,,,,
1771225773.571601,BATTERY_STATUS,11.891,0.0,60,,,,,,,,,,,
1771225773.583599,ESTIMATOR_STATUS,,,,,,,,,,,,,,
1771225773.653955,ATTITUDE,,,,,,,,,0.008780691772699356,-0.007395555265247822,-1.4629098176956177,,,
1771225773.7174988,RC_CHANNELS,,,,,,,,,,,,,,
1771225773.7294972,MISSION_CURRENT,,,,,,,,,,,,,,
1771225773.7940187,VFR_HUD,,,,,,,,,,,,,,
1771225773.909928,ATTITUDE,,,,,,,,,0.009579556994140148,-0.008169703185558319,-1.463281512260437,,,
1771225773.921928,ATTITUDE_QUATERNION,,,,,,,,,,,,,,
1771225774.0438318,GPS_RAW_INT,,,,,,,,,,,,,,
1771225774.108356,ATTITUDE,,,,,,,,,0.010066239163279533,-0.00849031750112772,-1.4630274772644043,,,
1771225774.2243037,ATTITUDE_QUATERNION,,,,,,,,,,,,,,
1771225774.3410218,ATTITUDE,,,,,,,,,0.010322683490812778,-0.008369720540940762,-1.4630450010299683,,,
1771225774.4083273,RC_CHANNELS,,,,,,,,,,,,,,
1771225774.472136,HEARTBEAT,,,,,,,,,,,,,,
1771225774.5363107,ATTITUDE,,,,,,,,,0.010407980531454086,-0.008043493144214153,-1.463104009628296,,,
1771225774.6003146,ATTITUDE_QUATERNION,,,,,,,,,,,,,,
1771225774.6642797,VFR_HUD,,,,,,,,,,,,,,
1771225774.7849164,GPS_RAW_INT,,,,,,,,,,,,,,
1771225774.7969155,ATTITUDE_TARGET,,,,,,,,,,,,,,
1771225774.8089178,VIBRATION,,,,,,,,,,,,,,
1771225774.8209164,MISSION_CURRENT,,,,,,,,,,,,,,
1771225774.8329175,ATTITUDE,,,,,,,,,0.010629428550601006,-0.00765281543135643,-1.462924838066101,,,
1771225774.899442,ATTITUDE_QUATERNION,,,,,,,,,,,,,,
1771225775.0152957,ATTITUDE,,,,,,,,,0.010848845355212688,-0.007647092454135418,-1.4631214141845703,,,
1771225775.1327887,RC_CHANNELS,,,,,,,,,,,,,,
1771225775.3012917,ATTITUDE,,,,,,,,,0.011148695833981037,-0.007571980822831392,-1.4628986120224,,,
1771225775.3132906,ATTITUDE_QUATERNION,,,,,,,,,,,,,,
1771225775.4493892,HEARTBEAT,,,,,,,,,,,,,,
1771225775.461393,GPS_RAW_INT,,,,,,,,,,,,,,
1771225775.4729984,ATTITUDE,,,,,,,,,0.011479506269097328,-0.0078012533485889435,-1.4629794359207153,,,
1771225775.543392,VFR_HUD,,,,,,,,,,,,,,
1771225775.6590633,ATTITUDE_QUATERNION,,,,,,,,,,,,,,
1771225775.728785,ATTITUDE,,,,,,,,,0.011660502292215824,-0.007624506019055843,-1.46284818649292,,,
1771225775.7412865,MISSION_CURRENT,,,,,,,,,,,,,,
1771225775.8052893,RC_CHANNELS,,,,,,,,,,,,,,
1771225775.9729002,GPS_STATUS,,,,,,,,,,,,,,
1771225775.984903,ATTITUDE,,,,,,,,,0.011596030555665493,-0.007482665590941906,-1.4631086587905884,,,
1771225775.9968996,ATTITUDE_QUATERNION,,,,,,,,,,,,,,
1771225776.171387,GPS_RAW_INT,,,,,,,,,,,,,,
1771225776.2351513,ATTITUDE,,,,,,,,,0.011169526726007462,-0.00742687564343214,-1.463323712348938,,,
1771225776.2985115,ATTITUDE_QUATERNION,,,,,,,,,,,,,,
1771225776.4169152,VFR_HUD,,,,,,,,,,,,,,
1771225776.4282851,ATTITUDE,,,,,,,,,0.010124730877578259,-0.007593205664306879,-1.464124083518982,,,
1771225776.440286,HEARTBEAT,,,,,,,,,,,,,,
1771225776.557344,ATTITUDE_TARGET,,,,,,,,,,,,,,
1771225776.5742545,RC_CHANNELS,,,,,,,,,,,,,,
1771225776.7432525,ATTITUDE,,,,,,,,,0.00825516041368246,-0.007844500243663788,-1.4653534889221191,,,
1771225776.760698,ALTITUDE,,,,,,,,601.8014526367188,,,,,,
1771225776.7729437,ATTITUDE_QUATERNION,,,,,,,,,,,,,,
1771225776.7852583,EXTENDED_SYS_STATE,,,,,,,,,,,,,,
1771225776.797258,LOCAL_POSITION_NED,,,,,,,,,,,,,,
1771225776.8092608,SCALED_PRESSURE,,,,,,,,,,,,,,
1771225776.821258,SERVO_OUTPUT_RAW,,,,0,0,0,0,,,,,,,
1771225776.8332713,SYS_STATUS,,,,,,,,,,,,,,
1771225776.8452692,UNKNOWN_8,,,,,,,,,,,,,,
1771225776.8632863,MISSION_CURRENT,,,,,,,,,,,,,,
1771225776.8752816,GPS_RAW_INT,,,,,,,,,,,,,,
1771225776.8872693,ATTITUDE,,,,,,,,,0.0064107696525752544,-0.008073526434600353,-1.466261386871338,,,
1771225777.0640984,ATTITUDE_QUATERNION,,,,,,,,,,,,,,
1771225777.126483,ATTITUDE,,,,,,,,,0.004984530154615641,-0.008259777911007404,-1.4669373035430908,,,
1771225777.1912642,RC_CHANNELS,,,,,,,,,,,,,,
1771225777.3078783,VFR_HUD,,,,,,,,,,,,,,
1771225777.3723505,ATTITUDE,,,,,,,,,0.004120026249438524,-0.008255932480096817,-1.4673478603363037,,,
1771225777.3843548,ATTITUDE_QUATERNION,,,,,,,,,,,,,,
1771225777.4482498,HEARTBEAT,,,,,,,,,,,,,,
1771225777.4602578,PING,,,,,,,,,,,,,,
1771225777.5242496,GPS_RAW_INT,,,,,,,,,,,,,,
1771225777.5880983,ATTITUDE,,,,,,,,,0.0036125893238931894,-0.008469113148748875,-1.4676955938339233,,,
1771225777.7072496,ATTITUDE_QUATERNION,,,,,,,,,,,,,,
1771225777.7706652,MISSION_CURRENT,,,,,,,,,,,,,,
1771225777.8351302,ATTITUDE,,,,,,,,,0.0032699513249099255,-0.008411426097154617,-1.4677388668060303,,,
1771225777.8989072,RC_CHANNELS,,,,,,,,,,,,,,
1771225778.07326,ATTITUDE,,,,,,,,,0.0030355530325323343,-0.00842649582773447,-1.4679250717163086,,,
1771225778.0850012,ATTITUDE_QUATERNION,,,,,,,,,,,,,,
1771225778.1517696,VFR_HUD,,,,,,,,,,,,,,
1771225778.2152402,GPS_RAW_INT,,,,,,,,,,,,,,
1771225778.2272391,ATTITUDE_TARGET,,,,,,,,,,,,,,
1771225778.2905617,ATTITUDE,,,,,,,,,0.002904839115217328,-0.008387177251279354,-1.4679245948791504,,,
1771225778.467342,ATTITUDE_QUATERNION,,,,,,,,,,,,,,
1771225778.4789877,HEARTBEAT,,,,,,,,,,,,,,
1771225778.5502372,ATTITUDE,,,,,,,,,0.002825923031195998,-0.00846098456531763,-1.467941403388977,,,
1771225778.6142483,RC_CHANNELS,,,,,,,,,,,,,,
1771225778.7819395,ATTITUDE,,,,,,,,,0.0028888792730867863,-0.008435831405222416,-1.4679051637649536,,,
1771225778.7942579,ATTITUDE_QUATERNION,,,,,,,,,,,,,,
1771225778.8062694,MISSION_CURRENT,,,,,,,,,,,,,,
1771225778.9228628,GPS_RAW_INT,,,,,,,,,,,,,,
1771225779.0392315,ATTITUDE,,,,,,,,,0.0026471002493053675,-0.008520380593836308,-1.4678537845611572,,,
1771225779.0512226,VFR_HUD,,,,,,,,,,,,,,
1771225779.1152298,ATTITUDE_QUATERNION,,,,,,,,,,,,,,
1771225779.2312274,ATTITUDE,,,,,,,,,0.0026762238703668118,-0.008614348247647285,-1.4677737951278687,,,
1771225779.2425218,RC_CHANNELS,,,,,,,,,,,,,,
1771225779.4653723,GPS_STATUS,,,,,,,,,,,,,,
1771225779.4832246,HEARTBEAT,,,,,,,,,,,,,,
1771225779.4952247,ATTITUDE,,,,,,,,,0.0028892215341329575,-0.008798114955425262,-1.4675183296203613,,,
1771225779.5070307,ATTITUDE_QUATERNION,,,,,,,,,,,,,,
1771225779.6229763,GPS_RAW_INT,,,,,,,,,,,,,,
1771225779.6870174,ATTITUDE,,,,,,,,,0.003061740892007947,-0.009105941280722618,-1.4677166938781738,,,
1771225779.8042185,MISSION_CURRENT,,,,,,,,,,,,,,
1771225779.8162222,ATTITUDE_QUATERNION,,,,,,,,,,,,,,
1771225779.8802114,VFR_HUD,,,,,,,,,,,,,,
1771225779.8922176,ATTITUDE,,,,,,,,,0.0031885120552033186,-0.009153390303254128,-1.4676612615585327,,,
1771225780.0082943,ATTITUDE_TARGET,,,,,,,,,,,,,,
1771225780.0199697,RC_CHANNELS,,,,,,,,,,,,,,
1771225780.1932206,ATTITUDE,,,,,,,,,0.003972259350121021,-0.009484462440013885,-1.4679622650146484,,,
1771225780.2052464,ALTITUDE,,,,,,,,601.3576049804688,,,,,,
1771225780.2172072,ATTITUDE_QUATERNION,,,,,,,,,,,,,,
1771225780.2352157,EXTENDED_SYS_STATE,,,,,,,,,,,,,,
1771225780.247026,LOCAL_POSITION_NED,,,,,,,,,,,,,,
1771225780.2590282,SCALED_PRESSURE,,,,,,,,,,,,,,
1771225780.2710283,SERVO_OUTPUT_RAW,,,,449,426,493,470,,,,,,,
1771225780.2830224,SYS_STATUS,,,,,,,,,,,,,,
1771225780.2952244,UNKNOWN_8,,,,,,,,,,,,,,
1771225780.3072238,GPS_RAW_INT,,,,,,,,,,,,,,
1771225780.3707557,ATTITUDE,,,,,,,,,0.0031029661186039448,-0.0084157045930624,-1.4675323963165283,,,
1771225780.435204,HEARTBEAT,,,,,,,,,,,,,,
1771225780.5507991,ATTITUDE_QUATERNION,,,,,,,,,,,,,,
1771225780.5630844,BATTERY_STATUS,11.708,5.72,59,,,,,,,,,,,
1771225780.5749016,ESTIMATOR_STATUS,,,,,,,,,,,,,,
1771225780.5872138,ATTITUDE,,,,,,,,,0.0001411607227055356,-0.007412155158817768,-1.4630801677703857,,,
1771225780.6512017,RC_CHANNELS,,,,,,,,,,,,,,
1771225780.7672484,VFR_HUD,,,,,,,,,,,,,,
1771225780.7793057,MISSION_CURRENT,,,,,,,,,,,,,,
1771225780.842612,ATTITUDE,,,,,,,,,-0.0030154548585414886,-0.0074284980073571205,-1.451351284980774,,,
1771225780.8552175,ATTITUDE_QUATERNION,,,,,,,,,,,,,,
1771225781.0227973,GPS_RAW_INT,,,,,,,,,,,,,,
1771225781.0873225,ATTITUDE,,,,,,,,,-0.004715940915048122,-0.007312154397368431,-1.4364169836044312,,,
1771225781.2033296,ATTITUDE_QUATERNION,,,,,,,,,,,,,,
1771225781.2667232,ATTITUDE,,,,,,,,,-0.005558659788221121,-0.005775974597781897,-1.406370997428894,,,
1771225781.38321,RC_CHANNELS,,,,,,,,,,,,,,
1771225781.4509988,HEARTBEAT,,,,,,,,,,,,,,
1771225781.5690336,ATTITUDE,,,,,,,,,-0.010987295769155025,-0.004556452855467796,-1.36165452003479,,,
1771225781.5795887,ATTITUDE_QUATERNION,,,,,,,,,,,,,,
1771225781.6442058,VFR_HUD,,,,,,,,,,,,,,
1771225781.7081587,GPS_RAW_INT,,,,,,,,,,,,,,
1771225781.7251902,ATTITUDE_TARGET,,,,,,,,,,,,,,
1771225781.7374165,ATTITUDE,,,,,,,,,-0.00837052334100008,-0.0013946789549663663,-1.2932422161102295,,,
1771225781.802191,MISSION_CURRENT,,,,,,,,,,,,,,
1771225781.9198194,ATTITUDE_QUATERNION,,,,,,,,,,,,,,
1771225782.035666,ATTITUDE,,,,,,,,,-0.015528062358498573,-0.0012330241734161973,-1.1862165927886963,,,
1771225782.0483088,RC_CHANNELS,,,,,,,,,,,,,,
1771225782.216715,ATTITUDE,,,,,,,,,-0.006762471050024033,-0.008339974097907543,-1.016498327255249,,,
1771225782.2806268,ATTITUDE_QUATERNION,,,,,,,,,,,,,,
1771225782.4551783,GPS_RAW_INT,,,,,,,,,,,,,,
1771225782.4671826,HEARTBEAT,,,,,,,,,,,,,,
1771225782.485198,ATTITUDE,,,,,,,,,0.0036778526846319437,-0.010834680870175362,-0.77640300989151,,,
1771225782.5486746,VFR_HUD,,,,,,,,,,,,,,
1771225782.561195,ATTITUDE_QUATERNION,,,,,,,,,,,,,,
1771225782.683195,ATTITUDE,,,,,,,,,0.002349870977923274,-0.014814028516411781,-0.43751758337020874,,,
1771225782.7471938,RC_CHANNELS,,,,,,,,,,,,,,
1771225782.7651782,MISSION_CURRENT,,,,,,,,,,,,,,
1771225782.9844375,GPS_STATUS,,,,,,,,,,,,,,
1771225782.997173,ATTITUDE,,,,,,,,,0.0005213135154917836,-0.01717069372534752,-0.0032617368269711733,,,
1771225783.0091827,ATTITUDE_QUATERNION,,,,,,,,,,,,,,
1771225783.0738776,GPS_RAW_INT,,,,,,,,,,,,,,
1771225783.1441057,ATTITUDE,,,,,,,,,0.0005006546271033585,-0.01220725942403078,0.5484054088592529,,,
1771225783.3118024,ATTITUDE_QUATERNION,,,,,,,,,,,,,,
1771225783.3761764,VFR_HUD,,,,,,,,,,,,,,
1771225783.3881664,ATTITUDE,,,,,,,,,-0.0005865538259968162,-0.020184896886348724,1.1884886026382446,,,
1771225783.510135,HEARTBEAT,,,,,,,,,,,,,,
1771225783.5221717,ATTITUDE_TARGET,,,,,,,,,,,,,,
1771225783.5341408,RC_CHANNELS,,,,,,,,,,,,,,
1771225783.6506414,ATTITUDE,,,,,,,,,-0.0021623733919113874,-0.006299135275185108,1.9485067129135132,,,
1771225783.662187,ALTITUDE,,,,,,,,601.8094482421875,,,,,,
1771225783.674189,ATTITUDE_QUATERNION,,,,,,,,,,,,,,
1771225783.6860392,EXTENDED_SYS_STATE,,,,,,,,,,,,,,
1771225783.7040486,LOCAL_POSITION_NED,,,,,,,,,,,,,,
1771225783.7161913,SCALED_PRESSURE,,,,,,,,,,,,,,
1771225783.7282712,SERVO_OUTPUT_RAW,,,,1000,1028,1086,1114,,,,,,,
1771225783.7402706,SYS_STATUS,,,,,,,,,,,,,,
1771225783.7512834,UNKNOWN_8,,,,,,,,,,,,,,
1771225783.815615,GPS_RAW_INT,,,,,,,,,,,,,,
1771225783.8276153,MISSION_CURRENT,,,,,,,,,,,,,,
1771225783.8921635,ATTITUDE,,,,,,,,,0.001529000117443502,-0.004226557910442352,2.737307548522949,,,
1771225783.956164,ATTITUDE_QUATERNION,,,,,,,,,,,,,,
1771225784.078246,ATTITUDE,,,,,,,,,-0.004712092224508524,0.000814436876680702,-2.6590945720672607,,,
1771225784.2151546,RC_CHANNELS,,,,,,,,,,,,,,
1771225784.2271729,VFR_HUD,,,,,,,,,,,,,,
1771225784.343303,ATTITUDE,,,,,,,,,0.0015551467658951879,-0.0003691472520586103,-1.734510898590088,,,
1771225784.3612576,ATTITUDE_QUATERNION,,,,,,,,,,,,,,
1771225784.4265013,HEARTBEAT,,,,,,,,,,,,,,
1771225784.4907494,GPS_RAW_INT,,,,,,,,,,,,,,
1771225784.5551505,ATTITUDE,,,,,,,,,-7.273819937836379e-05,-0.009185981005430222,-0.7392994165420532,,,
1771225784.7296178,ATTITUDE_QUATERNION,,,,,,,,,,,,,,
1771225784.7941785,ATTITUDE,,,,,,,,,-0.0005728142568841577,-0.008562351576983929,0.36142081022262573,,,
1771225784.8061497,MISSION_CURRENT,,,,,,,,,,,,,,
1771225784.8701515,RC_CHANNELS,,,,,,,,,,,,,,
1771225785.0391603,ATTITUDE,,,,,,,,,-0.0016585029661655426,0.0022833922412246466,1.55057954788208,,,
1771225785.0511615,ATTITUDE_QUATERNION,,,,,,,,,,,,,,
1771225785.1151595,VFR_HUD,,,,,,,,,,,,,,
1771225785.1791832,GPS_RAW_INT,,,,,,,,,,,,,,
1771225785.2431426,ATTITUDE_TARGET,,,,,,,,,,,,,,
1771225785.2551506,ATTITUDE,,,,,,,,,0.006634912919253111,-0.00028965729870833457,2.80820894241333,,,
1771225785.3711982,ATTITUDE_QUATERNION,,,,,,,,,,,,,,
1771225785.4361994,HEARTBEAT,,,,,,,,,,,,,,
1771225785.5001435,ATTITUDE,,,,,,,,,0.011008178815245628,0.005733337253332138,-2.0283989906311035,,,
1771225785.5121496,RC_CHANNELS,,,,,,,,,,,,,,
1771225785.680164,ATTITUDE,,,,,,,,,0.009221523068845272,0.005393702071160078,-0.47882702946662903,,,
1771225785.744142,ATTITUDE_QUATERNION,,,,,,,,,,,,,,
1771225785.864139,MISSION_CURRENT,,,,,,,,,,,,,,
1771225785.8761332,GPS_RAW_INT,,,,,,,,,,,,,,
1771225785.9396195,ATTITUDE,,,,,,,,,0.009251183830201626,0.008905506692826748,1.2633154392242432,,,
1771225786.0041316,VFR_HUD,,,,,,,,,,,,,,
1771225786.0683262,ATTITUDE_QUATERNION,,,,,,,,,,,,,,
1771225786.1318626,ATTITUDE,,,,,,,,,0.0063441297970712185,4.045734840474324e-06,2.993946075439453,,,
1771225786.2535594,RC_CHANNELS,,,,,,,,,,,,,,
1771225786.4292543,GPS_STATUS,,,,,,,,,,,,,,
1771225786.4412568,ATTITUDE,,,,,,,,,0.002907648216933012,0.00018593027198221534,-1.4322811365127563,,,
1771225786.4527822,ATTITUDE_QUATERNION,,,,,,,,,,,,,,
1771225786.4649203,HEARTBEAT,,,,,,,,,,,,,,
1771225786.5811932,GPS_RAW_INT,,,,,,,,,,,,,,
1771225786.5926435,ATTITUDE,,,,,,,,,0.006583878304809332,0.004038929007947445,0.44617676734924316,,,
1771225786.7621217,ATTITUDE_QUATERNION,,,,,,,,,,,,,,
1771225786.8262439,MISSION_CURRENT,,,,,,,,,,,,,,
1771225786.8951392,VFR_HUD,,,,,,,,,,,,,,
1771225786.907124,ATTITUDE,,,,,,,,,0.006329103838652372,0.005512733943760395,2.433238983154297,,,
1771225786.9191236,ATTITUDE_TARGET,,,,,,,,,,,,,,
1771225786.9311197,RC_CHANNELS,,,,,,,,,,,,,,
1771225787.0986753,ATTITUDE,,,,,,,,,0.0025278900284320116,-0.003246103646233678,-1.7627193927764893,,,
1771225787.1686902,ALTITUDE,,,,,,,,601.9468383789062,,,,,,
1771225787.1806955,ATTITUDE_QUATERNION,,,,,,,,,,,,,,
1771225787.1947427,EXTENDED_SYS_STATE,,,,,,,,,,,,,,
1771225787.205881,LOCAL_POSITION_NED,,,,,,,,,,,,,,
1771225787.2181237,SCALED_PRESSURE,,,,,,,,,,,,,,
1771225787.230125,SERVO_OUTPUT_RAW,,,,1124,1175,1295,1346,,,,,,,
1771225787.2424643,SYS_STATUS,,,,,,,,,,,,,,
1771225787.253484,UNKNOWN_8,,,,,,,,,,,,,,
1771225787.2721345,GPS_RAW_INT,,,,,,,,,,,,,,
1771225787.336114,ATTITUDE,,,,,,,,,0.006154912989586592,0.012611103244125843,0.3462139964103699,,,
1771225787.453904,HEARTBEAT,,,,,,,,,,,,,,
1771225787.4661329,PING,,,,,,,,,,,,,,
1771225787.4791384,ATTITUDE_QUATERNION,,,,,,,,,,,,,,
1771225787.4911332,BATTERY_STATUS,11.214,10.5,31,,,,,,,,,,,
1771225787.5131323,ESTIMATOR_STATUS,,,,,,,,,,,,,,
1771225787.6011357,ATTITUDE,,,,,,,,,0.007731964346021414,-0.0019868770614266396,2.4519917964935303,,,
1771225787.6671157,RC_CHANNELS,,,,,,,,,,,,,,
1771225787.7354147,VFR_HUD,,,,,,,,,,,,,,
1771225787.799445,ATTITUDE,,,,,,,,,-0.007145341020077467,-0.004092472139745951,-1.6230281591415405,,,
1771225787.811925,ATTITUDE_QUATERNION,,,,,,,,,,,,,,
1771225787.830315,MISSION_CURRENT,,,,,,,,,,,,,,
1771225787.9464023,GPS_RAW_INT,,,,,,,,,,,,,,
1771225788.0161273,ATTITUDE,,,,,,,,,0.01261808630079031,0.011895944364368916,0.637984037399292,,,
1771225788.1837149,ATTITUDE_QUATERNION,,,,,,,,,,,,,,
1771225788.3010762,ATTITUDE,,,,,,,,,0.0006638159975409508,-0.011484969407320023,2.989384651184082,,,
1771225788.3120604,RC_CHANNELS,,,,,,,,,,,,,,
1771225788.4297836,HEARTBEAT,,,,,,,,,,,,,,
1771225788.492398,ATTITUDE,,,,,,,,,0.008606385439634323,0.009893950074911118,-0.943111002445221,,,
1771225788.5050988,ATTITUDE_QUATERNION,,,,,,,,,,,,,,
1771225788.574719,VFR_HUD,,,,,,,,,,,,,,
1771225788.691154,GPS_RAW_INT,,,,,,,,,,,,,,
1771225788.703154,ATTITUDE_TARGET,,,,,,,,,,,,,,
1771225788.767116,ATTITUDE,,,,,,,,,-0.004282780457288027,-0.006309284828603268,1.383508324623108,,,
1771225788.8311157,MISSION_CURRENT,,,,,,,,,,,,,,
1771225788.8491166,ATTITUDE_QUATERNION,,,,,,,,,,,,,,
1771225788.9649441,ATTITUDE,,,,,,,,,0.008342834189534187,0.014341408386826515,-2.517465114593506,,,
1771225789.0811386,RC_CHANNELS,,,,,,,,,,,,,,
1771225789.1981359,ATTITUDE,,,,,,,,,-0.0039784568361938,-0.0085732601583004,-0.19889020919799805,,,
1771225789.2101245,ATTITUDE_QUATERNION,,,,,,,,,,,,,,
1771225789.3776448,GPS_RAW_INT,,,,,,,,,,,,,,
1771225789.3900871,ATTITUDE,,,,,,,,,0.007924102246761322,0.011980832554399967,2.263674020767212,,,
1771225789.4550877,HEARTBEAT,,,,,,,,,,,,,,
1771225789.467557,VFR_HUD,,,,,,,,,,,,,,
1771225789.583814,ATTITUDE_QUATERNION,,,,,,,,,,,,,,
1771225789.6988578,ATTITUDE,,,,,,,,,-0.0025306465104222298,-0.0017586833564564586,-1.7134193181991577,,,
1771225789.7110338,RC_CHANNELS,,,,,,,,,,,,,,
1771225789.8271134,MISSION_CURRENT,,,,,,,,,,,,,,
1771225789.891,GPS_STATUS,,,,,,,,,,,,,,
1771225789.903004,ATTITUDE,,,,,,,,,0.005676369182765484,0.0033338028006255627,0.6322929859161377,,,
1771225789.9150887,ATTITUDE_QUATERNION,,,,,,,,,,,,,,
1771225790.0311656,GPS_RAW_INT,,,,,,,,,,,,,,
1771225790.1480772,ATTITUDE,,,,,,,,,-0.0004830406396649778,-0.002146185375750065,2.949617862701416,,,
1771225790.264191,ATTITUDE_QUATERNION,,,,,,,,,,,,,,
1771225790.328148,VFR_HUD,,,,,,,,,,,,,,
1771225790.3400836,ATTITUDE,,,,,,,,,0.001514260657131672,0.0027994608972221613,-0.9369705319404602,,,
1771225790.4099114,ATTITUDE_TARGET,,,,,,,,,,,,,,
1771225790.4214213,RC_CHANNELS,,,,,,,,,,,,,,
1771225790.4334252,HEARTBEAT,,,,,,,,,,,,,,
1771225790.6594636,ATTITUDE,,,,,,,,,0.006998956203460693,-0.000633962219581008,1.531544804573059,,,
1771225790.6714647,ALTITUDE,,,,,,,,602.7421875,,,,,,
1771225790.6844704,ATTITUDE_QUATERNION,,,,,,,,,,,,,,
1771225790.6968973,EXTENDED_SYS_STATE,,,,,,,,,,,,,,
1771225790.7089553,LOCAL_POSITION_NED,,,,,,,,,,,,,,
1771225790.7270925,SCALED_PRESSURE,,,,,,,,,,,,,,
1771225790.7390952,SERVO_OUTPUT_RAW,,,,1135,1133,1178,1177,,,,,,,
1771225790.7510898,SYS_STATUS,,,,,,,,,,,,,,
1771225790.7630794,UNKNOWN_8,,,,,,,,,,,,,,
1771225790.7750971,GPS_RAW_INT,,,,,,,,,,,,,,
1771225790.83841,ATTITUDE,,,,,,,,,-0.007688718847930431,-0.005144110880792141,-2.33556866645813,,,
1771225790.8511074,MISSION_CURRENT,,,,,,,,,,,,,,
1771225790.966549,ATTITUDE_QUATERNION,,,,,,,,,,,,,,
1771225791.0830126,ATTITUDE,,,,,,,,,0.004711207468062639,0.007338843774050474,0.03252920135855675,,,
1771225791.1469917,RC_CHANNELS,,,,,,,,,,,,,,
1771225791.211082,VFR_HUD,,,,,,,,,,,,,,
1771225791.2745206,ATTITUDE,,,,,,,,,0.0003972658596467227,-0.003914813045412302,2.436817169189453,,,
1771225791.293085,ATTITUDE_QUATERNION,,,,,,,,,,,,,,
1771225791.460444,HEARTBEAT,,,,,,,,,,,,,,
1771225791.4791439,GPS_RAW_INT,,,,,,,,,,,,,,
1771225791.4907625,ATTITUDE,,,,,,,,,0.0008954930235631764,0.010166073217988014,-1.5154844522476196,,,
1771225791.662598,ATTITUDE_QUATERNION,,,,,,,,,,,,,,
1771225791.726563,ATTITUDE,,,,,,,,,0.010078235529363155,-0.008773000910878181,0.932601809501648,,,
1771225791.790723,RC_CHANNELS,,,,,,,,,,,,,,
1771225791.8551714,MISSION_CURRENT,,,,,,,,,,,,,,
1771225791.971072,ATTITUDE,,,,,,,,,-0.019804637879133224,0.005440553650259972,-3.0623886585235596,,,
1771225791.9830728,ATTITUDE_QUATERNION,,,,,,,,,,,,,,
1771225792.0470524,VFR_HUD,,,,,,,,,,,,,,
1771225792.1625214,GPS_RAW_INT,,,,,,,,,,,,,,
1771225792.1750073,ATTITUDE_TARGET,,,,,,,,,,,,,,
1771225792.187008,ATTITUDE,,,,,,,,,0.040216777473688126,0.017089348286390305,-0.7420771718025208,,,
1771225792.3024669,ATTITUDE_QUATERNION,,,,,,,,,,,,,,
1771225792.419052,ATTITUDE,,,,,,,,,-0.05447472631931305,-0.051387690007686615,1.5533045530319214,,,
1771225792.4310477,HEARTBEAT,,,,,,,,,,,,,,
1771225792.5506973,RC_CHANNELS,,,,,,,,,,,,,,
1771225792.6667225,ATTITUDE,,,,,,,,,0.058400824666023254,0.11970052123069763,-2.449748992919922,,,
1771225792.6790452,ATTITUDE_QUATERNION,,,,,,,,,,,,,,
1771225792.8479693,GPS_RAW_INT,,,,,,,,,,,,,,
1771225792.9114618,MISSION_CURRENT,,,,,,,,,,,,,,
1771225792.923472,ATTITUDE,,,,,,,,,-0.0012989634415134788,-0.2238747477531433,-0.0012068357318639755,,,
1771225792.9362018,VFR_HUD,,,,,,,,,,,,,,
1771225793.0525956,ATTITUDE_QUATERNION,,,,,,,,,,,,,,
1771225793.1170382,ATTITUDE,,,,,,,,,-0.368297815322876,0.1159636601805687,2.059884548187256,,,
1771225793.1810486,RC_CHANNELS,,,,,,,,,,,,,,
1771225793.4011607,GPS_STATUS,,,,,,,,,,,,,,
1771225793.4130344,ATTITUDE,,,,,,,,,0.11675432324409485,0.25979378819465637,-2.758549928665161,,,
1771225793.4250453,ATTITUDE_QUATERNION,,,,,,,,,,,,,,
1771225793.4370403,HEARTBEAT,,,,,,,,,,,,,,
1771225793.559038,GPS_RAW_INT,,,,,,,,,,,,,,
1771225793.6230361,ATTITUDE,,,,,,,,,0.3703613877296448,0.04059050604701042,-1.9648704528808594,,,
1771225793.693185,ATTITUDE_QUATERNION,,,,,,,,,,,,,,
1771225793.8111832,VFR_HUD,,,,,,,,,,,,,,
1771225793.8291874,ATTITUDE,,,,,,,,,0.13915321230888367,-0.2606106400489807,-1.5843465328216553,,,
1771225793.8410335,MISSION_CURRENT,,,,,,,,,,,,,,
1771225793.9571338,ATTITUDE_TARGET,,,,,,,,,,,,,,
1771225793.968485,RC_CHANNELS,,,,,,,,,,,,,,
1771225794.1387372,ATTITUDE,,,,,,,,,-0.05046572908759117,-0.11468853801488876,-1.403346061706543,,,
1771225794.150031,ATTITUDE_QUATERNION,,,,,,,,,,,,,,
1771225794.1620831,ALTITUDE,,,,,,,,604.2350463867188,,,,,,
1771225794.174062,EXTENDED_SYS_STATE,,,,,,,,,,,,,,
1771225794.1920414,LOCAL_POSITION_NED,,,,,,,,,,,,,,
1771225794.204042,SCALED_PRESSURE,,,,,,,,,,,,,,
1771225794.2160425,SERVO_OUTPUT_RAW,,,,0,0,0,0,,,,,,,
1771225794.2275786,SYS_STATUS,,,,,,,,,,,,,,
1771225794.238889,UNKNOWN_8,,,,,,,,,,,,,,
1771225794.2519631,GPS_RAW_INT,,,,,,,,,,,,,,
1771225794.2634811,ATTITUDE,,,,,,,,,-0.043395038694143295,-0.020784152671694756,-1.3706574440002441,,,
1771225794.490329,ATTITUDE_QUATERNION,,,,,,,,,,,,,,
1771225794.5023243,HEARTBEAT,,,,,,,,,,,,,,
1771225794.515988,BATTERY_STATUS,11.666,0.0,40,,,,,,,,,,,
1771225794.5270445,ESTIMATOR_STATUS,,,,,,,,,,,,,,
1771225794.5390272,ATTITUDE,,,,,,,,,-0.009546566754579544,-0.0011491479817777872,-1.357748031616211,,,
1771225794.603102,RC_CHANNELS,,,,,,,,,,,,,,
1771225794.7200344,VFR_HUD,,,,,,,,,,,,,,
1771225794.7836423,ATTITUDE,,,,,,,,,0.0031442989129573107,-0.006383148021996021,-1.3550184965133667,,,
1771225794.7956457,ATTITUDE_QUATERNION,,,,,,,,,,,,,,
1771225794.9118524,MISSION_CURRENT,,,,,,,,,,,,,,
1771225794.9760191,GPS_RAW_INT,,,,,,,,,,,,,,
1771225794.9890614,ATTITUDE,,,,,,,,,0.004100940655916929,-0.012557252310216427,-1.3567370176315308,,,
1771225795.104347,ATTITUDE_QUATERNION,,,,,,,,,,,,,,
1771225795.2270062,ATTITUDE,,,,,,,,,0.0030425856821238995,-0.015161773189902306,-1.3577640056610107,,,
1771225795.3441372,RC_CHANNELS,,,,,,,,,,,,,,
1771225795.415583,HEARTBEAT,,,,,,,,,,,,,,
1771225795.4790134,ATTITUDE,,,,,,,,,0.0027646010275930166,-0.015828462317585945,-1.3583282232284546,,,
1771225795.4910147,ATTITUDE_QUATERNION,,,,,,,,,,,,,,
1771225795.5547478,VFR_HUD,,,,,,,,,,,,,,
1771225795.6190355,ATTITUDE_TARGET,,,,,,,,,,,,,,
1771225795.6310067,GPS_RAW_INT,,,,,,,,,,,,,,
1771225795.6977525,ATTITUDE,,,,,,,,,0.0028081373311579227,-0.01572052389383316,-1.3585803508758545,,,
1771225795.8141713,ATTITUDE_QUATERNION,,,,,,,,,,,,,,
1771225795.8840249,MISSION_CURRENT,,,,,,,,,,,,,,
1771225795.947439,ATTITUDE,,,,,,,,,0.002959203440696001,-0.015444481745362282,-1.358784556388855,,,
1771225796.0120072,RC_CHANNELS,,,,,,,,,,,,,,
1771225796.1805084,ATTITUDE,,,,,,,,,0.003034085500985384,-0.015494396910071373,-1.3592052459716797,,,
1771225796.1925085,ATTITUDE_QUATERNION,,,,,,,,,,,,,,
1771225796.3089497,GPS_RAW_INT,,,,,,,,,,,,,,
1771225796.42509,ATTITUDE,,,,,,,,,0.0032392735593020916,-0.015605736523866653,-1.3593411445617676,,,
1771225796.4361875,VFR_HUD,,,,,,,,,,,,,,
1771225796.4544046,HEARTBEAT,,,,,,,,,,,,,,
1771225796.5189939,ATTITUDE_QUATERNION,,,,,,,,,,,,,,
1771225796.640999,ATTITUDE,,,,,,,,,0.003415757790207863,-0.015886496752500534,-1.359777808189392,,,
1771225796.6530037,RC_CHANNELS,,,,,,,,,,,,,,
1771225796.9260077,GPS_STATUS,,,,,,,,,,,,,,
1771225796.9380085,ATTITUDE,,,,,,,,,0.0035748931113630533,-0.015791598707437515,-1.3599462509155273,,,
1771225796.950006,ATTITUDE_QUATERNION,,,,,,,,,,,,,,
1771225796.9617236,MISSION_CURRENT,,,,,,,,,,,,,,
1771225797.0399027,GPS_RAW_INT,,,,,,,,,,,,,,
1771225797.055956,ATTITUDE,,,,,,,,,0.004864571616053581,-0.01651710830628872,-1.3601946830749512,,,
1771225797.1959982,ATTITUDE_QUATERNION,,,,,,,,,,,,,,
1771225797.259562,VFR_HUD,,,,,,,,,,,,,,
1771225797.324973,ATTITUDE,,,,,,,,,0.0059675066731870174,-0.018436385318636894,-1.3604068756103516,,,
1771225797.3892438,ATTITUDE_TARGET,,,,,,,,,,,,,,
1771225797.4012513,RC_CHANNELS,,,,,,,,,,,,,,
1771225797.466105,HEARTBEAT,,,,,,,,,,,,,,
1771225797.483992,PING,,,,,,,,,,,,,,
1771225797.6000338,ATTITUDE,,,,,,,,,0.010992109775543213,-0.017678948119282722,-1.3570200204849243,,,
1771225797.6112287,ATTITUDE_QUATERNION,,,,,,,,,,,,,,
1771225797.6239982,ALTITUDE,,,,,,,,601.7433471679688,,,,,,
1771225797.635999,EXTENDED_SYS_STATE,,,,,,,,,,,,,,
1771225797.6479995,LOCAL_POSITION_NED,,,,,,,,,,,,,,
1771225797.666049,SCALED_PRESSURE,,,,,,,,,,,,,,
1771225797.678049,SERVO_OUTPUT_RAW,,,,0,0,0,0,,,,,,,
1771225797.6896105,SYS_STATUS,,,,,,,,,,,,,,
1771225797.70161,UNKNOWN_8,,,,,,,,,,,,,,
1771225797.7136092,GPS_RAW_INT,,,,,,,,,,,,,,
1771225797.7256103,ATTITUDE,,,,,,,,,0.010200108401477337,-0.004589335527271032,-1.3574576377868652,,,
