Timestamp,Message Type,Voltage (V),Current (A),Remaining (%),Servo1 Output,Servo2 Output,Servo3 Output,Servo4 Output,Altitude (m),Roll,Pitch,Yaw,Acceleration Z (m/s^2),ESC Data,ESC Info
1771010091.815135,ATTITUDE_QUATERNION,,,,,,,,,,,,,,
1771010091.9251254,ATTITUDE,,,,,,,,,0.01156259048730135,-0.014225410297513008,-0.00021785148419439793,,,
1771010091.9998193,ALTITUDE,,,,,,,,587.099609375,,,,,,
1771010092.0077384,EXTENDED_SYS_STATE,,,,,,,,,,,,,,
1771010092.0226173,LOCAL_POSITION_NED,,,,,,,,,,,,,,
1771010092.035158,SCALED_PRESSURE,,,,,,,,,,,,,,
1771010092.0468938,SERVO_OUTPUT_RAW,,,,0,0,0,0,,,,,,,
1771010092.056125,SYS_STATUS,,,,,,,,,,,,,,
1771010092.071219,UNKNOWN_8,,,,,,,,,,,,,,
1771010092.0879695,MISSION_CURRENT,,,,,,,,,,,,,,
1771010092.0961344,ATTITUDE,,,,,,,,,0.011509397067129612,-0.014293882995843887,-7.923233351903036e-05,,,
1771010092.1128137,ATTITUDE_QUATERNION,,,,,,,,,,,,,,
1771010092.184597,GPS_RAW_INT,,,,,,,,,,,,,,
1771010092.3007617,ATTITUDE,,,,,,,,,0.011432886123657227,-0.014401237480342388,-8.649179653730243e-05,,,
1771010092.4165814,ATTITUDE_QUATERNION,,,,,,,,,,,,,,
1771010092.5313892,ATTITUDE,,,,,,,,,0.011370760388672352,-0.014575857669115067,1.143889039667556e-05,,,
1771010092.596091,VFR_HUD,,,,,,,,,,,,,,
1771010092.8151143,ATTITUDE,,,,,,,,,0.011326541192829609,-0.014722493477165699,5.4872150940354913e-05,,,
1771010092.8251932,ATTITUDE_QUATERNION,,,,,,,,,,,,,,
1771010092.835026,HEARTBEAT,,,,,,,,,,,,,,
1771010092.8499095,GPS_RAW_INT,,,,,,,,,,,,,,
1771010092.923579,POSITION_TARGET_LOCAL_NED,,,,,,,,,,,,,,
1771010092.9348884,MISSION_CURRENT,,,,,,,,,,,,,,
1771010092.9989772,ATTITUDE,,,,,,,,,0.01131611131131649,-0.01485690288245678,0.00010127402492798865,,,
1771010093.1148984,ATTITUDE_QUATERNION,,,,,,,,,,,,,,
1771010093.185716,ATTITUDE,,,,,,,,,0.011186912655830383,-0.014956296421587467,0.00017320740153081715,,,
1771010093.3532152,ATTITUDE_TARGET,,,,,,,,,,,,,,
1771010093.3652587,VFR_HUD,,,,,,,,,,,,,,
1771010093.4288654,ATTITUDE,,,,,,,,,0.011090509593486786,-0.015083163976669312,0.00015070282097440213,,,
1771010093.436242,ATTITUDE_QUATERNION,,,,,,,,,,,,,,
1771010093.5051966,GPS_RAW_INT,,,,,,,,,,,,,,
1771010093.5171945,GPS_STATUS,,,,,,,,,,,,,,
1771010093.639866,ATTITUDE,,,,,,,,,0.011016188189387321,-0.015179931186139584,9.43042614380829e-05,,,
1771010093.70385,ATTITUDE_QUATERNION,,,,,,,,,,,,,,
1771010093.7651055,HEARTBEAT,,,,,,,,,,,,,,
1771010093.8322916,ATTITUDE,,,,,,,,,0.010915338061749935,-0.015264960005879402,3.690001176437363e-05,,,
1771010093.9535077,MISSION_CURRENT,,,,,,,,,,,,,,
1771010094.0748894,ATTITUDE,,,,,,,,,0.010829934850335121,-0.015346274711191654,4.1798022721195593e-05,,,
1771010094.0879753,ATTITUDE_QUATERNION,,,,,,,,,,,,,,
1771010094.0978494,GPS_RAW_INT,,,,,,,,,,,,,,
1771010094.1689057,VFR_HUD,,,,,,,,,,,,,,
1771010094.28537,ATTITUDE,,,,,,,,,0.010787165723741055,-0.01543530821800232,-5.10212544213573e-07,,,
1771010094.3970063,ATTITUDE_QUATERNION,,,,,,,,,,,,,,
1771010094.515265,ATTITUDE,,,,,,,,,0.010682782158255577,-0.015479372814297676,-0.00014269242819864303,,,
1771010094.685081,ATTITUDE,,,,,,,,,0.010622148402035236,-0.015491683967411518,-0.00025150191504508257,,,
1771010094.6973326,ATTITUDE_QUATERNION,,,,,,,,,,,,,,
1771010094.7592742,GPS_RAW_INT,,,,,,,,,,,,,,
1771010094.7706857,HEARTBEAT,,,,,,,,,,,,,,
1771010094.8951724,ATTITUDE,,,,,,,,,0.010557141155004501,-0.015562736429274082,-0.00031716443481855094,,,
1771010094.955048,MISSION_CURRENT,,,,,,,,,,,,,,
1771010095.0193417,ATTITUDE_TARGET,,,,,,,,,,,,,,
1771010095.0351255,VFR_HUD,,,,,,,,,,,,,,
1771010095.0451858,ATTITUDE_QUATERNION,,,,,,,,,,,,,,
1771010095.0596497,POSITION_TARGET_LOCAL_NED,,,,,,,,,,,,,,
1771010095.1750944,ATTITUDE,,,,,,,,,0.010486176237463951,-0.015589587390422821,-0.00036406805156730115,,,
1771010095.1905773,ALTITUDE,,,,,,,,587.26611328125,,,,,,
1771010095.2051327,EXTENDED_SYS_STATE,,,,,,,,,,,,,,
1771010095.2151423,LOCAL_POSITION_NED,,,,,,,,,,,,,,
1771010095.22496,SCALED_PRESSURE,,,,,,,,,,,,,,
1771010095.2393386,SERVO_OUTPUT_RAW,,,,0,0,0,0,,,,,,,
1771010095.255072,SYS_STATUS,,,,,,,,,,,,,,
1771010095.2713947,UNKNOWN_8,,,,,,,,,,,,,,
1771010095.3863723,ATTITUDE,,,,,,,,,0.010415841825306416,-0.015626659616827965,-0.00040061146137304604,,,
1771010095.399096,ATTITUDE_QUATERNION,,,,,,,,,,,,,,
1771010095.41116,GPS_RAW_INT,,,,,,,,,,,,,,
1771010095.590401,BATTERY_STATUS,12.249,0.0,87,,,,,,,,,,,
1771010095.6030042,ESTIMATOR_STATUS,,,,,,,,,,,,,,
1771010095.6152563,ATTITUDE,,,,,,,,,0.010373673401772976,-0.015665149316191673,-0.0005504716536961496,,,
1771010095.6850147,ATTITUDE_QUATERNION,,,,,,,,,,,,,,
1771010095.7963083,HEARTBEAT,,,,,,,,,,,,,,
1771010095.8130152,ATTITUDE,,,,,,,,,0.010379277169704437,-0.01569364033639431,-0.0006491121021099389,,,
1771010095.8248813,VFR_HUD,,,,,,,,,,,,,,
1771010095.9927528,MISSION_CURRENT,,,,,,,,,,,,,,
1771010096.0050893,ATTITUDE,,,,,,,,,0.01034408900886774,-0.015700507909059525,-0.0006940546445548534,,,
1771010096.0234199,ATTITUDE_QUATERNION,,,,,,,,,,,,,,
1771010096.0358276,GPS_RAW_INT,,,,,,,,,,,,,,
1771010096.2066844,ATTITUDE,,,,,,,,,0.010289246216416359,-0.015668611973524094,-0.0006708824075758457,,,
1771010096.3795552,ATTITUDE_QUATERNION,,,,,,,,,,,,,,
1771010096.4440362,ATTITUDE,,,,,,,,,0.010219765827059746,-0.015632571652531624,-0.0008331043063662946,,,
1771010096.60862,ATTITUDE_TARGET,,,,,,,,,,,,,,
1771010096.6169274,VFR_HUD,,,,,,,,,,,,,,
1771010096.6850975,ATTITUDE,,,,,,,,,0.010166131891310215,-0.015628285706043243,-0.0008245708304457366,,,
1771010096.6991942,ATTITUDE_QUATERNION,,,,,,,,,,,,,,
1771010096.757567,GPS_RAW_INT,,,,,,,,,,,,,,
1771010096.7750094,GPS_STATUS,,,,,,,,,,,,,,
1771010096.7872393,HEARTBEAT,,,,,,,,,,,,,,
1771010096.8510797,ATTITUDE,,,,,,,,,0.010044874623417854,-0.015641387552022934,-0.0008617777493782341,,,
1771010096.9672546,ATTITUDE_QUATERNION,,,,,,,,,,,,,,
1771010096.9793384,MISSION_CURRENT,,,,,,,,,,,,,,
1771010097.0952523,ATTITUDE,,,,,,,,,0.00997721217572689,-0.015584209933876991,-0.0009542101179249585,,,
1771010097.2612698,POSITION_TARGET_LOCAL_NED,,,,,,,,,,,,,,
1771010097.275212,ATTITUDE,,,,,,,,,0.009931419044733047,-0.015590156428515911,-0.0010182656114920974,,,
1771010097.2850344,ATTITUDE_QUATERNION,,,,,,,,,,,,,,
1771010097.3514712,GPS_RAW_INT,,,,,,,,,,,,,,
1771010097.467522,VFR_HUD,,,,,,,,,,,,,,
1771010097.524996,ATTITUDE,,,,,,,,,0.009828857146203518,-0.015561684034764767,-0.001055559841915965,,,
1771010097.6450222,ATTITUDE_QUATERNION,,,,,,,,,,,,,,
1771010097.7562304,ATTITUDE,,,,,,,,,0.009845728054642677,-0.015536867082118988,-0.001145524438470602,,,
1771010097.7749207,HEARTBEAT,,,,,,,,,,,,,,
1771010097.7920053,PING,,,,,,,,,,,,,,
1771010097.9606085,ATTITUDE,,,,,,,,,0.009968198835849762,-0.015509756281971931,-0.0011849278816953301,,,
1771010097.9688215,ATTITUDE_QUATERNION,,,,,,,,,,,,,,
1771010097.9851089,MISSION_CURRENT,,,,,,,,,,,,,,
1771010097.994908,GPS_RAW_INT,,,,,,,,,,,,,,
1771010098.0602214,RC_CHANNELS,,,,,,,,,,,,,,
1771010098.1771026,ATTITUDE,,,,,,,,,0.01013598870486021,-0.015465958043932915,-0.0012070629745721817,,,
1771010098.3468897,ATTITUDE_QUATERNION,,,,,,,,,,,,,,
1771010098.3587663,VFR_HUD,,,,,,,,,,,,,,
1771010098.3750684,ATTITUDE_TARGET,,,,,,,,,,,,,,
1771010098.4361753,ATTITUDE,,,,,,,,,0.010328598320484161,-0.015369054861366749,-0.0012396875536069274,,,
1771010098.6096988,ATTITUDE,,,,,,,,,0.010531122796237469,-0.015311641618609428,-0.0013082396471872926,,,
1771010098.725016,ATTITUDE_QUATERNION,,,,,,,,,,,,,,
1771010098.7371573,ALTITUDE,,,,,,,,587.2872314453125,,,,,,
1771010098.7490113,EXTENDED_SYS_STATE,,,,,,,,,,,,,,
1771010098.75937,LOCAL_POSITION_NED,,,,,,,,,,,,,,
1771010098.7737746,SCALED_PRESSURE,,,,,,,,,,,,,,
1771010098.785121,SERVO_OUTPUT_RAW,,,,0,0,0,0,,,,,,,
1771010098.8001072,SYS_STATUS,,,,,,,,,,,,,,
1771010098.8148434,UNKNOWN_8,,,,,,,,,,,,,,
1771010098.824923,GPS_RAW_INT,,,,,,,,,,,,,,
1771010098.839583,RC_CHANNELS,,,,,,,,,,,,,,
1771010098.8497005,HEARTBEAT,,,,,,,,,,,,,,
1771010098.914814,ATTITUDE,,,,,,,,,0.0106253232806921,-0.015296321362257004,-0.0013560520019382238,,,
1771010098.9848049,MISSION_CURRENT,,,,,,,,,,,,,,
1771010098.9951432,ATTITUDE_QUATERNION,,,,,,,,,,,,,,
1771010099.111235,ATTITUDE,,,,,,,,,0.010786398313939571,-0.015238176099956036,-0.0013436642475426197,,,
1771010099.1748734,VFR_HUD,,,,,,,,,,,,,,
1771010099.3425934,ATTITUDE,,,,,,,,,0.010903186164796352,-0.015195890329778194,-0.0013538970379158854,,,
1771010099.3571134,ATTITUDE_QUATERNION,,,,,,,,,,,,,,
1771010099.4269536,GPS_RAW_INT,,,,,,,,,,,,,,
1771010099.4897873,RC_CHANNELS,,,,,,,,,,,,,,
1771010099.605164,POSITION_TARGET_LOCAL_NED,,,,,,,,,,,,,,
1771010099.61735,ATTITUDE,,,,,,,,,0.010943705216050148,-0.015147538855671883,-0.0013295401586219668,,,
1771010099.7385461,ATTITUDE_QUATERNION,,,,,,,,,,,,,,
1771010099.7466164,HEARTBEAT,,,,,,,,,,,,,,
1771010099.8152034,ATTITUDE,,,,,,,,,0.011049015447497368,-0.015094425529241562,-0.0012865830212831497,,,
1771010099.9834924,MISSION_CURRENT,,,,,,,,,,,,,,
1771010100.0452402,ATTITUDE,,,,,,,,,0.011076854541897774,-0.015051211230456829,-0.0012297536013647914,,,
1771010100.0582771,ATTITUDE_QUATERNION,,,,,,,,,,,,,,
1771010100.0717115,VFR_HUD,,,,,,,,,,,,,,
1771010100.0849228,GPS_RAW_INT,,,,,,,,,,,,,,
1771010100.0952916,ATTITUDE_TARGET,,,,,,,,,,,,,,
1771010100.156163,RC_CHANNELS,,,,,,,,,,,,,,
1771010100.2248566,GPS_STATUS,,,,,,,,,,,,,,
1771010100.2858837,ATTITUDE,,,,,,,,,0.011090205051004887,-0.015065100975334644,-0.0011966773308813572,,,
1771010100.404911,ATTITUDE_QUATERNION,,,,,,,,,,,,,,
1771010100.5179727,ATTITUDE,,,,,,,,,0.01116604171693325,-0.015014303848147392,-0.0011691257823258638,,,
1771010100.792979,ATTITUDE,,,,,,,,,0.01118769496679306,-0.0150166479870677,-0.0010874227154999971,,,
1771010100.8026145,ATTITUDE_QUATERNION,,,,,,,,,,,,,,
1771010100.8148983,HEARTBEAT,,,,,,,,,,,,,,
1771010100.8249862,GPS_RAW_INT,,,,,,,,,,,,,,
1771010100.8898883,RC_CHANNELS,,,,,,,,,,,,,,
1771010100.9053264,VFR_HUD,,,,,,,,,,,,,,
1771010100.9731061,ATTITUDE,,,,,,,,,0.011273541487753391,-0.01494589727371931,-0.0010340064764022827,,,
1771010101.0354238,MISSION_CURRENT,,,,,,,,,,,,,,
1771010101.0472298,ATTITUDE_QUATERNION,,,,,,,,,,,,,,
1771010101.216518,ATTITUDE,,,,,,,,,0.011264292523264885,-0.014967110008001328,-0.0009260292863473296,,,
1771010101.4449348,ATTITUDE,,,,,,,,,0.01070082001388073,-0.015151022002100945,-0.0007518595084547997,,,
1771010101.4550738,ATTITUDE_QUATERNION,,,,,,,,,,,,,,
1771010101.4649014,GPS_RAW_INT,,,,,,,,,,,,,,
1771010101.5301957,RC_CHANNELS,,,,,,,,,,,,,,
1771010101.6996148,ATTITUDE,,,,,,,,,0.01049846038222313,-0.015235383994877338,-0.0005241355393081903,,,
1771010101.8166153,HEARTBEAT,,,,,,,,,,,,,,
1771010101.8272183,ATTITUDE_QUATERNION,,,,,,,,,,,,,,
1771010101.8352523,VFR_HUD,,,,,,,,,,,,,,
1771010101.8589468,ATTITUDE_TARGET,,,,,,,,,,,,,,
1771010101.9185834,ATTITUDE,,,,,,,,,0.010377039201557636,-0.015269918367266655,-0.0006116980221122503,,,
1771010101.9847877,MISSION_CURRENT,,,,,,,,,,,,,,
1771010102.2063456,ATTITUDE,,,,,,,,,0.010321126319468021,-0.015394847840070724,-0.0005166199407540262,,,
1771010102.2248595,ATTITUDE_QUATERNION,,,,,,,,,,,,,,
1771010102.2349536,ALTITUDE,,,,,,,,587.1947631835938,,,,,,
1771010102.2478735,EXTENDED_SYS_STATE,,,,,,,,,,,,,,
1771010102.2600808,LOCAL_POSITION_NED,,,,,,,,,,,,,,
1771010102.2723815,SCALED_PRESSURE,,,,,,,,,,,,,,
1771010102.284974,SERVO_OUTPUT_RAW,,,,109,217,125,233,,,,,,,
1771010102.3003688,SYS_STATUS,,,,,,,,,,,,,,
1771010102.3147917,UNKNOWN_8,,,,,,,,,,,,,,
1771010102.3249192,GPS_RAW_INT,,,,,,,,,,,,,,
1771010102.3377035,RC_CHANNELS,,,,,,,,,,,,,,
1771010102.3501666,ATTITUDE,,,,,,,,,0.010447688400745392,-0.015419526025652885,-0.0006020971341058612,,,
1771010102.518884,BATTERY_STATUS,12.245,0.0,87,,,,,,,,,,,
1771010102.525229,ESTIMATOR_STATUS,,,,,,,,,,,,,,
1771010102.6467109,ATTITUDE,,,,,,,,,0.010602709837257862,-0.015494820661842823,-0.0006444276659749448,,,
1771010102.6594455,VFR_HUD,,,,,,,,,,,,,,
1771010102.7750244,HEARTBEAT,,,,,,,,,,,,,,
1771010102.8353589,ATTITUDE,,,,,,,,,0.010390427894890308,-0.015893474221229553,-0.00037383544258773327,,,
1771010102.8490157,ATTITUDE_QUATERNION,,,,,,,,,,,,,,
1771010102.857479,GPS_RAW_INT,,,,,,,,,,,,,,
1771010102.9274833,RC_CHANNELS,,,,,,,,,,,,,,
1771010103.0431962,MISSION_CURRENT,,,,,,,,,,,,,,
1771010103.1068056,ATTITUDE,,,,,,,,,0.010566916316747665,-0.01638062857091427,-0.0001953313039848581,,,
1771010103.167265,ATTITUDE_QUATERNION,,,,,,,,,,,,,,
1771010103.2912169,ATTITUDE,,,,,,,,,0.010755049996078014,-0.016400109976530075,-0.00025456096045672894,,,
1771010103.5151262,ATTITUDE,,,,,,,,,0.011020896956324577,-0.017240963876247406,3.7919100577710196e-05,,,
1771010103.5851982,ATTITUDE_QUATERNION,,,,,,,,,,,,,,
1771010103.5947907,VFR_HUD,,,,,,,,,,,,,,
1771010103.6079957,GPS_RAW_INT,,,,,,,,,,,,,,
1771010103.6162174,ATTITUDE_TARGET,,,,,,,,,,,,,,
1771010103.6327534,RC_CHANNELS,,,,,,,,,,,,,,
1771010103.6974938,GPS_STATUS,,,,,,,,,,,,,,
1771010103.7633011,ATTITUDE,,,,,,,,,0.011119183152914047,-0.017546284943819046,0.00056123809190467,,,
1771010103.7751267,HEARTBEAT,,,,,,,,,,,,,,
1771010103.8449745,ATTITUDE_QUATERNION,,,,,,,,,,,,,,
1771010103.9608817,ATTITUDE,,,,,,,,,0.010674846358597279,-0.017447352409362793,0.0003765857545658946,,,
1771010104.0251014,MISSION_CURRENT,,,,,,,,,,,,,,
1771010104.2450185,ATTITUDE,,,,,,,,,0.010867593809962273,-0.01746055856347084,0.0001531187881482765,,,
1771010104.2629435,ATTITUDE_QUATERNION,,,,,,,,,,,,,,
1771010104.2752113,GPS_RAW_INT,,,,,,,,,,,,,,
1771010104.3392246,RC_CHANNELS,,,,,,,,,,,,,,
1771010104.403372,VFR_HUD,,,,,,,,,,,,,,
1771010104.4148645,ATTITUDE,,,,,,,,,0.010913938283920288,-0.01757129654288292,0.00037241869722492993,,,
1771010104.5835004,ATTITUDE_QUATERNION,,,,,,,,,,,,,,
1771010104.6994705,ATTITUDE,,,,,,,,,0.011849855072796345,-0.01708664745092392,-9.04656553757377e-05,,,
1771010104.8168306,HEARTBEAT,,,,,,,,,,,,,,
1771010104.9391696,ATTITUDE,,,,,,,,,0.01214626058936119,-0.017048334702849388,-0.0002156996342819184,,,
1771010104.945188,ATTITUDE_QUATERNION,,,,,,,,,,,,,,
1771010104.9615374,GPS_RAW_INT,,,,,,,,,,,,,,
1771010105.0305488,RC_CHANNELS,,,,,,,,,,,,,,
1771010105.0451362,MISSION_CURRENT,,,,,,,,,,,,,,
1771010105.106935,VIBRATION,,,,,,,,,,,,,,
1771010105.1733458,ATTITUDE,,,,,,,,,0.012450385838747025,-0.01727285422384739,-0.00023587462783325464,,,
1771010105.2892659,ATTITUDE_QUATERNION,,,,,,,,,,,,,,
1771010105.3070974,VFR_HUD,,,,,,,,,,,,,,
1771010105.3172872,ATTITUDE_TARGET,,,,,,,,,,,,,,
1771010105.3812823,ATTITUDE,,,,,,,,,0.012123855762183666,-0.01739978976547718,-0.00036077527329325676,,,
1771010105.7068334,ATTITUDE,,,,,,,,,0.012036642991006374,-0.017543962225317955,-0.0004577318031806499,,,
1771010105.7168965,ATTITUDE_QUATERNION,,,,,,,,,,,,,,
1771010105.730117,ALTITUDE,,,,,,,,587.1524658203125,,,,,,
1771010105.737008,EXTENDED_SYS_STATE,,,,,,,,,,,,,,
1771010105.7610016,LOCAL_POSITION_NED,,,,,,,,,,,,,,
1771010105.7738075,SCALED_PRESSURE,,,,,,,,,,,,,,
1771010105.7847664,SERVO_OUTPUT_RAW,,,,109,235,130,257,,,,,,,
1771010105.7969267,SYS_STATUS,,,,,,,,,,,,,,
1771010105.808906,UNKNOWN_8,,,,,,,,,,,,,,
1771010105.8213184,GPS_RAW_INT,,,,,,,,,,,,,,
1771010105.8333125,RC_CHANNELS,,,,,,,,,,,,,,
1771010105.8501751,HEARTBEAT,,,,,,,,,,,,,,
1771010105.8583531,ATTITUDE,,,,,,,,,0.012045360170304775,-0.017774110659956932,-0.0004496164619922638,,,
1771010105.9269202,ATTITUDE_QUATERNION,,,,,,,,,,,,,,
1771010106.0467677,MISSION_CURRENT,,,,,,,,,,,,,,
1771010106.1113443,ATTITUDE,,,,,,,,,0.012066868133842945,-0.017831403762102127,-0.0004218301910441369,,,
1771010106.1279278,VFR_HUD,,,,,,,,,,,,,,
1771010106.2947392,ATTITUDE,,,,,,,,,0.012448698282241821,-0.018387503921985626,-0.00038939391379244626,,,
1771010106.315098,ATTITUDE_QUATERNION,,,,,,,,,,,,,,
1771010106.3264897,GPS_RAW_INT,,,,,,,,,,,,,,
1771010106.3847895,RC_CHANNELS,,,,,,,,,,,,,,
1771010106.5597477,ATTITUDE,,,,,,,,,0.012170654721558094,-0.022453851997852325,0.0037196686025708914,,,
1771010106.6751647,ATTITUDE_QUATERNION,,,,,,,,,,,,,,
1771010106.7949567,HEARTBEAT,,,,,,,,,,,,,,
1771010106.8048584,ATTITUDE,,,,,,,,,0.01189794298261404,-0.019155379384756088,0.002172555308789015,,,
1771010107.0251844,ATTITUDE,,,,,,,,,0.011417042464017868,-0.019262487068772316,0.0023471848107874393,,,
1771010107.0390413,ATTITUDE_QUATERNION,,,,,,,,,,,,,,
1771010107.0490432,VFR_HUD,,,,,,,,,,,,,,
1771010107.057214,GPS_RAW_INT,,,,,,,,,,,,,,
1771010107.0748608,MISSION_CURRENT,,,,,,,,,,,,,,
1771010107.0923464,ATTITUDE_TARGET,,,,,,,,,,,,,,
1771010107.1549456,RC_CHANNELS,,,,,,,,,,,,,,
1771010107.175034,GPS_STATUS,,,,,,,,,,,,,,
1771010107.2376845,ATTITUDE,,,,,,,,,0.013336648233234882,-0.01926395483314991,0.0017385222017765045,,,
1771010107.407918,ATTITUDE_QUATERNION,,,,,,,,,,,,,,
1771010107.4713583,ATTITUDE,,,,,,,,,0.013832435943186283,-0.019298691302537918,0.0016823448240756989,,,
1771010107.7003736,ATTITUDE,,,,,,,,,0.014777460135519505,-0.019823607057332993,0.0017212106613442302,,,
1771010107.7085462,ATTITUDE_QUATERNION,,,,,,,,,,,,,,
1771010107.7804744,GPS_RAW_INT,,,,,,,,,,,,,,
1771010107.7887957,HEARTBEAT,,,,,,,,,,,,,,
1771010107.8049192,PING,,,,,,,,,,,,,,
1771010107.8171382,RC_CHANNELS,,,,,,,,,,,,,,
1771010107.8769789,VFR_HUD,,,,,,,,,,,,,,
1771010107.9449108,ATTITUDE,,,,,,,,,0.0200821403414011,-0.02308632619678974,0.0018940330483019352,,,
1771010108.057597,ATTITUDE_QUATERNION,,,,,,,,,,,,,,
1771010108.0726192,MISSION_CURRENT,,,,,,,,,,,,,,
1771010108.134937,ATTITUDE,,,,,,,,,0.018530244007706642,-0.022220736369490623,0.001501553226262331,,,
1771010108.462694,ATTITUDE,,,,,,,,,0.016808852553367615,-0.020518440753221512,0.0009753383346833289,,,
1771010108.4791267,ATTITUDE_QUATERNION,,,,,,,,,,,,,,
1771010108.4908843,GPS_RAW_INT,,,,,,,,,,,,,,
1771010108.555075,RC_CHANNELS,,,,,,,,,,,,,,
1771010108.6172912,ATTITUDE,,,,,,,,,0.01686660386621952,-0.020481985062360764,0.0009334184578619897,,,
1771010108.7352564,ATTITUDE_QUATERNION,,,,,,,,,,,,,,
1771010108.7547622,VFR_HUD,,,,,,,,,,,,,,
1771010108.7649343,HEARTBEAT,,,,,,,,,,,,,,
1771010108.7787774,ATTITUDE_TARGET,,,,,,,,,,,,,,
1771010108.8449779,ATTITUDE,,,,,,,,,0.01693096198141575,-0.020464221015572548,0.0005291987326927483,,,
1771010109.0147378,MISSION_CURRENT,,,,,,,,,,,,,,
1771010109.1293237,ATTITUDE,,,,,,,,,0.016568154096603394,-0.020039640367031097,0.0003593988949432969,,,
1771010109.1450725,ATTITUDE_QUATERNION,,,,,,,,,,,,,,
1771010109.154876,ALTITUDE,,,,,,,,587.0230102539062,,,,,,
1771010109.1651134,EXTENDED_SYS_STATE,,,,,,,,,,,,,,
1771010109.187691,LOCAL_POSITION_NED,,,,,,,,,,,,,,
1771010109.1960285,SCALED_PRESSURE,,,,,,,,,,,,,,
1771010109.2111158,SERVO_OUTPUT_RAW,,,,0,0,0,0,,,,,,,
1771010109.2202294,SYS_STATUS,,,,,,,,,,,,,,
1771010109.2349064,UNKNOWN_8,,,,,,,,,,,,,,
1771010109.2448263,GPS_RAW_INT,,,,,,,,,,,,,,
1771010109.2547429,RC_CHANNELS,,,,,,,,,,,,,,
1771010109.319698,ATTITUDE,,,,,,,,,0.01648755744099617,-0.019929634407162666,0.00023696738935541362,,,
1771010109.4855833,ATTITUDE_QUATERNION,,,,,,,,,,,,,,
1771010109.501403,BATTERY_STATUS,12.232,0.0,86,,,,,,,,,,,
1771010109.5150015,ESTIMATOR_STATUS,,,,,,,,,,,,,,
1771010109.577485,ATTITUDE,,,,,,,,,0.016741398721933365,-0.019942311570048332,3.504827691358514e-05,,,
1771010109.5894315,VFR_HUD,,,,,,,,,,,,,,
1771010109.7569354,HEARTBEAT,,,,,,,,,,,,,,
1771010109.7651646,ATTITUDE,,,,,,,,,0.017022283747792244,-0.01996992528438568,-0.00012790913751814514,,,
1771010109.834806,ATTITUDE_QUATERNION,,,,,,,,,,,,,,
1771010109.8477666,GPS_RAW_INT,,,,,,,,,,,,,,
1771010109.90854,RC_CHANNELS,,,,,,,,,,,,,,
1771010110.0274172,ATTITUDE,,,,,,,,,0.01734604872763157,-0.02003142610192299,-4.906682079308666e-05,,,
1771010110.0868478,MISSION_CURRENT,,,,,,,,,,,,,,
1771010110.1547444,ATTITUDE_QUATERNION,,,,,,,,,,,,,,
1771010110.2246504,ATTITUDE,,,,,,,,,0.017629161477088928,-0.020064298063516617,3.3590022212592885e-05,,,
1771010110.4970262,ATTITUDE,,,,,,,,,0.017902662977576256,-0.02006443776190281,0.00014423870015889406,,,
1771010110.5106418,ATTITUDE_QUATERNION,,,,,,,,,,,,,,
1771010110.5187042,VFR_HUD,,,,,,,,,,,,,,
1771010110.531327,GPS_RAW_INT,,,,,,,,,,,,,,
1771010110.544705,ATTITUDE_TARGET,,,,,,,,,,,,,,
1771010110.6091604,RC_CHANNELS,,,,,,,,,,,,,,
1771010110.673347,GPS_STATUS,,,,,,,,,,,,,,
1771010110.684947,ATTITUDE,,,,,,,,,0.01810048334300518,-0.020093457773327827,0.00020153691002633423,,,
1771010110.7490983,HEARTBEAT,,,,,,,,,,,,,,
1771010110.865008,ATTITUDE_QUATERNION,,,,,,,,,,,,,,
1771010110.9873068,ATTITUDE,,,,,,,,,0.018363026902079582,-0.02015279419720173,0.00032505160197615623,,,
1771010111.0460055,MISSION_CURRENT,,,,,,,,,,,,,,
1771010111.1680205,ATTITUDE,,,,,,,,,0.018591534346342087,-0.020152509212493896,0.0004322686872910708,,,
1771010111.176599,ATTITUDE_QUATERNION,,,,,,,,,,,,,,
1771010111.2425053,GPS_RAW_INT,,,,,,,,,,,,,,
1771010111.2566895,RC_CHANNELS,,,,,,,,,,,,,,
1771010111.375021,VFR_HUD,,,,,,,,,,,,,,
1771010111.4398937,ATTITUDE,,,,,,,,,0.018785931169986725,-0.020183227956295013,0.0005039636744186282,,,
1771010111.554707,ATTITUDE_QUATERNION,,,,,,,,,,,,,,
1771010111.6182616,ATTITUDE,,,,,,,,,0.018982699140906334,-0.020155683159828186,0.0004763240576721728,,,
1771010111.7887785,HEARTBEAT,,,,,,,,,,,,,,
1771010111.904864,ATTITUDE,,,,,,,,,0.019039422273635864,-0.02009197324514389,0.00044246367178857327,,,
1771010111.918976,ATTITUDE_QUATERNION,,,,,,,,,,,,,,
1771010111.9347086,GPS_RAW_INT,,,,,,,,,,,,,,
1771010111.9999633,RC_CHANNELS,,,,,,,,,,,,,,
1771010112.1177454,MISSION_CURRENT,,,,,,,,,,,,,,
1771010112.1311042,ATTITUDE,,,,,,,,,0.01858663558959961,-0.019729357212781906,0.0004812135885003954,,,
1771010112.196777,ATTITUDE_QUATERNION,,,,,,,,,,,,,,
1771010112.26472,VFR_HUD,,,,,,,,,,,,,,
1771010112.3256614,ATTITUDE_TARGET,,,,,,,,,,,,,,
1771010112.3421898,ATTITUDE,,,,,,,,,0.01758011244237423,-0.01907443255186081,0.0005984507733955979,,,
1771010112.6147122,ATTITUDE,,,,,,,,,0.016193339601159096,-0.018217524513602257,0.0007517073536291718,,,
1771010112.6346354,ATTITUDE_QUATERNION,,,,,,,,,,,,,,
1771010112.6448631,ALTITUDE,,,,,,,,586.8089599609375,,,,,,
1771010112.655944,EXTENDED_SYS_STATE,,,,,,,,,,,,,,
1771010112.6687238,LOCAL_POSITION_NED,,,,,,,,,,,,,,
1771010112.682246,SCALED_PRESSURE,,,,,,,,,,,,,,
1771010112.6935155,SERVO_OUTPUT_RAW,,,,0,0,0,0,,,,,,,
1771010112.7109075,SYS_STATUS,,,,,,,,,,,,,,
1771010112.7246387,UNKNOWN_8,,,,,,,,,,,,,,
1771010112.7367208,GPS_RAW_INT,,,,,,,,,,,,,,
1771010112.748398,RC_CHANNELS,,,,,,,,,,,,,,
1771010112.7590778,HEARTBEAT,,,,,,,,,,,,,,
1771010112.8215692,ATTITUDE,,,,,,,,,0.015066421590745449,-0.017538966611027718,0.0009357896051369607,,,
1771010112.9399633,ATTITUDE_QUATERNION,,,,,,,,,,,,,,
1771010113.059034,ATTITUDE,,,,,,,,,0.014365145936608315,-0.01703772321343422,0.0010722868610173464,,,
1771010113.0730271,MISSION_CURRENT,,,,,,,,,,,,,,
1771010113.0860674,VFR_HUD,,,,,,,,,,,,,,
1771010113.305071,ATTITUDE,,,,,,,,,0.01397160068154335,-0.0167525801807642,0.0011876828502863646,,,
1771010113.3248355,ATTITUDE_QUATERNION,,,,,,,,,,,,,,
1771010113.334891,GPS_RAW_INT,,,,,,,,,,,,,,
1771010113.3981876,RC_CHANNELS,,,,,,,,,,,,,,
1771010113.5212379,ATTITUDE,,,,,,,,,0.013958984985947609,-0.01679391786456108,0.0012829124461859465,,,
1771010113.5848143,ATTITUDE_QUATERNION,,,,,,,,,,,,,,
1771010113.7547407,ATTITUDE,,,,,,,,,0.013953360728919506,-0.016795910894870758,0.0012579908361658454,,,
1771010113.7648907,HEARTBEAT,,,,,,,,,,,,,,
1771010113.9851012,ATTITUDE,,,,,,,,,0.013702343218028545,-0.016536669805645943,0.001291642664000392,,,
1771010113.9985487,ATTITUDE_QUATERNION,,,,,,,,,,,,,,
1771010114.016392,VFR_HUD,,,,,,,,,,,,,,
1771010114.0285907,ATTITUDE_TARGET,,,,,,,,,,,,,,
1771010114.035029,GPS_RAW_INT,,,,,,,,,,,,,,
1771010114.0513787,RC_CHANNELS,,,,,,,,,,,,,,
1771010114.1150267,GPS_STATUS,,,,,,,,,,,,,,
1771010114.1272552,MISSION_CURRENT,,,,,,,,,,,,,,
1771010114.243075,ATTITUDE,,,,,,,,,0.013728192076086998,-0.016560673713684082,0.0016014607390388846,,,
1771010114.3070464,ATTITUDE_QUATERNION,,,,,,,,,,,,,,
1771010114.4248078,ATTITUDE,,,,,,,,,0.013828549534082413,-0.0167218167334795,0.001878939219750464,,,
1771010114.6366684,ATTITUDE,,,,,,,,,0.013524304144084454,-0.016526082530617714,0.0019921516068279743,,,
1771010114.7049634,ATTITUDE_QUATERNION,,,,,,,,,,,,,,
1771010114.7150946,GPS_RAW_INT,,,,,,,,,,,,,,
1771010114.7310839,RC_CHANNELS,,,,,,,,,,,,,,
1771010114.744732,HEARTBEAT,,,,,,,,,,,,,,
1771010114.8649373,VFR_HUD,,,,,,,,,,,,,,
1771010114.8746312,ATTITUDE,,,,,,,,,0.013411488384008408,-0.016599802300333977,0.0019756448455154896,,,
1771010114.994759,ATTITUDE_QUATERNION,,,,,,,,,,,,,,
1771010115.107959,MISSION_CURRENT,,,,,,,,,,,,,,
1771010115.1668472,ATTITUDE,,,,,,,,,0.013505680486559868,-0.01674499176442623,0.0019203764386475086,,,
1771010115.3900447,ATTITUDE,,,,,,,,,0.013557220809161663,-0.0169684998691082,0.0019191255560144782,,,
1771010115.4065616,ATTITUDE_QUATERNION,,,,,,,,,,,,,,
1771010115.4169388,GPS_RAW_INT,,,,,,,,,,,,,,
1771010115.479987,RC_CHANNELS,,,,,,,,,,,,,,
1771010115.5449455,ATTITUDE,,,,,,,,,0.013595391064882278,-0.01713521219789982,0.0019413563422858715,,,
1771010115.7249975,ATTITUDE_QUATERNION,,,,,,,,,,,,,,
1771010115.7363918,VFR_HUD,,,,,,,,,,,,,,
1771010115.8071084,HEARTBEAT,,,,,,,,,,,,,,
1771010115.8207173,ATTITUDE_TARGET,,,,,,,,,,,,,,
1771010115.8267763,ATTITUDE,,,,,,,,,0.01358442660421133,-0.01727253943681717,0.0019979015924036503,,,
1771010116.106453,ATTITUDE,,,,,,,,,0.013476013205945492,-0.017472784966230392,0.0020383133087307215,,,
1771010116.119794,ATTITUDE_QUATERNION,,,,,,,,,,,,,,
1771010116.131443,ALTITUDE,,,,,,,,587.1101684570312,,,,,,
1771010116.1510649,EXTENDED_SYS_STATE,,,,,,,,,,,,,,
1771010116.1599848,LOCAL_POSITION_NED,,,,,,,,,,,,,,
1771010116.174625,SCALED_PRESSURE,,,,,,,,,,,,,,
1771010116.1849275,SERVO_OUTPUT_RAW,,,,0,0,0,0,,,,,,,
1771010116.1978853,SYS_STATUS,,,,,,,,,,,,,,
1771010116.206383,UNKNOWN_8,,,,,,,,,,,,,,
1771010116.2224374,GPS_RAW_INT,,,,,,,,,,,,,,
1771010116.2414849,MISSION_CURRENT,,,,,,,,,,,,,,
1771010116.2534497,RC_CHANNELS,,,,,,,,,,,,,,
1771010116.3166034,ATTITUDE,,,,,,,,,0.013485170900821686,-0.017552785575389862,0.0021098237484693527,,,
1771010116.3797588,ATTITUDE_QUATERNION,,,,,,,,,,,,,,
1771010116.4447293,BATTERY_STATUS,12.203,0.0,86,,,,,,,,,,,
1771010116.4546812,ESTIMATOR_STATUS,,,,,,,,,,,,,,
1771010116.5162134,ATTITUDE,,,,,,,,,0.013427290134131908,-0.017715169116854668,0.0019723500590771437,,,
1771010116.5847154,VFR_HUD,,,,,,,,,,,,,,
1771010116.7653382,ATTITUDE,,,,,,,,,0.01316679548472166,-0.017929259687662125,0.0017973831854760647,,,
1771010116.7748306,ATTITUDE_QUATERNION,,,,,,,,,,,,,,
1771010116.7878242,HEARTBEAT,,,,,,,,,,,,,,
1771010116.8003173,GPS_RAW_INT,,,,,,,,,,,,,,
1771010116.8647084,RC_CHANNELS,,,,,,,,,,,,,,
1771010116.9746108,ATTITUDE,,,,,,,,,0.013685353100299835,-0.017001517117023468,0.0018809131579473615,,,
1771010117.1495721,ATTITUDE_QUATERNION,,,,,,,,,,,,,,
1771010117.1597772,MISSION_CURRENT,,,,,,,,,,,,,,
1771010117.2250552,ATTITUDE,,,,,,,,,0.013370615430176258,-0.017319221049547195,0.0018198152538388968,,,
1771010117.448109,ATTITUDE,,,,,,,,,0.014800988137722015,-0.017946869134902954,0.0013110950822010636,,,
1771010117.4624722,ATTITUDE_QUATERNION,,,,,,,,,,,,,,
1771010117.4747336,VFR_HUD,,,,,,,,,,,,,,
1771010117.4850028,GPS_RAW_INT,,,,,,,,,,,,,,
1771010117.544655,ATTITUDE_TARGET,,,,,,,,,,,,,,
1771010117.5625203,RC_CHANNELS,,,,,,,,,,,,,,
1771010117.62462,GPS_STATUS,,,,,,,,,,,,,,
1771010117.69029,ATTITUDE,,,,,,,,,0.013236749917268753,-0.017489857971668243,0.0012322877300903201,,,
1771010117.755023,HEARTBEAT,,,,,,,,,,,,,,
1771010117.8189218,PING,,,,,,,,,,,,,,
1771010117.8267057,ATTITUDE_QUATERNION,,,,,,,,,,,,,,
1771010117.894835,ATTITUDE,,,,,,,,,0.013789353892207146,-0.01767795905470848,0.0013060851488262415,,,
1771010118.1149194,MISSION_CURRENT,,,,,,,,,,,,,,
1771010118.1797624,ATTITUDE,,,,,,,,,0.014025651849806309,-0.01847441866993904,0.0012677431805059314,,,
1771010118.188216,ATTITUDE_QUATERNION,,,,,,,,,,,,,,
1771010118.196584,GPS_RAW_INT,,,,,,,,,,,,,,
1771010118.267022,RC_CHANNELS,,,,,,,,,,,,,,
1771010118.3289526,VFR_HUD,,,,,,,,,,,,,,
1771010118.3372853,ATTITUDE,,,,,,,,,0.014405195601284504,-0.019372232258319855,0.0009201723150908947,,,
1771010118.4547627,ATTITUDE_QUATERNION,,,,,,,,,,,,,,
1771010118.6249774,ATTITUDE,,,,,,,,,0.014106927439570427,-0.01870783045887947,0.0010737315751612186,,,
1771010118.7960439,HEARTBEAT,,,,,,,,,,,,,,
1771010118.8615792,ATTITUDE,,,,,,,,,0.013550162315368652,-0.019513076171278954,0.0005917394882999361,,,
1771010118.8745902,ATTITUDE_QUATERNION,,,,,,,,,,,,,,
1771010118.8864388,GPS_RAW_INT,,,,,,,,,,,,,,
1771010118.9489508,RC_CHANNELS,,,,,,,,,,,,,,
1771010119.0675805,ATTITUDE,,,,,,,,,0.011683573015034199,-0.019966846331954002,0.00010182865662500262,,,
1771010119.1348069,MISSION_CURRENT,,,,,,,,,,,,,,
1771010119.1982362,ATTITUDE_QUATERNION,,,,,,,,,,,,,,
1771010119.2085514,VFR_HUD,,,,,,,,,,,,,,
1771010119.2228749,ATTITUDE_TARGET,,,,,,,,,,,,,,
1771010119.2845924,ATTITUDE,,,,,,,,,0.01066836528480053,-0.020652765408158302,0.001024578232318163,,,
1771010119.6128392,ATTITUDE,,,,,,,,,0.012436253018677235,-0.019714420661330223,0.0020981121342629194,,,
1771010119.6230047,ATTITUDE_QUATERNION,,,,,,,,,,,,,,
1771010119.6366632,ALTITUDE,,,,,,,,587.4616088867188,,,,,,
1771010119.647832,EXTENDED_SYS_STATE,,,,,,,,,,,,,,
1771010119.656249,LOCAL_POSITION_NED,,,,,,,,,,,,,,
1771010119.6646054,SCALED_PRESSURE,,,,,,,,,,,,,,
1771010119.685565,SERVO_OUTPUT_RAW,,,,0,0,0,0,,,,,,,
1771010119.7022042,SYS_STATUS,,,,,,,,,,,,,,
1771010119.714618,UNKNOWN_8,,,,,,,,,,,,,,
1771010119.726552,GPS_RAW_INT,,,,,,,,,,,,,,
1771010119.737621,RC_CHANNELS,,,,,,,,,,,,,,
1771010119.7465017,HEARTBEAT,,,,,,,,,,,,,,
1771010119.7602608,ATTITUDE,,,,,,,,,0.012534148059785366,-0.020527098327875137,0.0014813195448368788,,,
1771010119.8847215,ATTITUDE_QUATERNION,,,,,,,,,,,,,,
1771010120.004947,ATTITUDE,,,,,,,,,0.009875685907900333,-0.02094952017068863,0.00032011730945669115,,,
1771010120.0709357,VFR_HUD,,,,,,,,,,,,,,
1771010120.1348493,MISSION_CURRENT,,,,,,,,,,,,,,
1771010120.248941,ATTITUDE,,,,,,,,,0.009613591246306896,-0.0196154173463583,0.0005129749188199639,,,
1771010120.2573674,ATTITUDE_QUATERNION,,,,,,,,,,,,,,
1771010120.2747595,GPS_RAW_INT,,,,,,,,,,,,,,
1771010120.3396423,RC_CHANNELS,,,,,,,,,,,,,,
1771010120.5070875,ATTITUDE,,,,,,,,,0.009143758565187454,-0.02062845230102539,0.00013991151354275644,,,
1771010120.571323,ATTITUDE_QUATERNION,,,,,,,,,,,,,,
1771010120.6945856,ATTITUDE,,,,,,,,,0.011442078277468681,-0.020530952140688896,-3.0343164326041006e-05,,,
1771010120.7545476,HEARTBEAT,,,,,,,,,,,,,,
1771010120.9249356,ATTITUDE,,,,,,,,,0.013673694804310799,-0.019432561472058296,5.281094490783289e-05,,,
1771010120.9908657,ATTITUDE_QUATERNION,,,,,,,,,,,,,,
1771010120.9991465,VFR_HUD,,,,,,,,,,,,,,
1771010121.015656,GPS_RAW_INT,,,,,,,,,,,,,,
1771010121.024568,ATTITUDE_TARGET,,,,,,,,,,,,,,
1771010121.0900493,RC_CHANNELS,,,,,,,,,,,,,,
1771010121.098489,GPS_STATUS,,,,,,,,,,,,,,
1771010121.1668944,MISSION_CURRENT,,,,,,,,,,,,,,
1771010121.1789532,ATTITUDE,,,,,,,,,0.01414912473410368,-0.019465569406747818,2.221126305812504e-05,,,
1771010121.2446797,ATTITUDE_QUATERNION,,,,,,,,,,,,,,
1771010121.3593345,ATTITUDE,,,,,,,,,0.014547869563102722,-0.019628604874014854,-7.797028956701979e-05,,,
1771010121.6336856,ATTITUDE,,,,,,,,,0.014884274452924728,-0.019861800596117973,-0.0003120715555269271,,,
1771010121.645,ATTITUDE_QUATERNION,,,,,,,,,,,,,,
1771010121.655894,GPS_RAW_INT,,,,,,,,,,,,,,
1771010121.7248895,RC_CHANNELS,,,,,,,,,,,,,,
1771010121.7865098,HEARTBEAT,,,,,,,,,,,,,,
1771010121.8028405,VFR_HUD,,,,,,,,,,,,,,
1771010121.8194323,ATTITUDE,,,,,,,,,0.015224252827465534,-0.019993208348751068,-0.0004930687719024718,,,
1771010121.9847248,ATTITUDE_QUATERNION,,,,,,,,,,,,,,
1771010122.1049905,ATTITUDE,,,,,,,,,0.015541945584118366,-0.02009676769375801,-0.0006543048075400293,,,
1771010122.1166508,MISSION_CURRENT,,,,,,,,,,,,,,
1771010122.2845426,ATTITUDE,,,,,,,,,0.015795094892382622,-0.020200762897729874,-0.0007487962138839066,,,
1771010122.3466256,ATTITUDE_QUATERNION,,,,,,,,,,,,,,
1771010122.36481,GPS_RAW_INT,,,,,,,,,,,,,,
1771010122.4295685,RC_CHANNELS,,,,,,,,,,,,,,
1771010122.5481617,ATTITUDE,,,,,,,,,0.016002951189875603,-0.020245449617505074,-0.0007447601528838277,,,
1771010122.6681898,ATTITUDE_QUATERNION,,,,,,,,,,,,,,
1771010122.6796534,VFR_HUD,,,,,,,,,,,,,,
1771010122.6998072,ATTITUDE_TARGET,,,,,,,,,,,,,,
1771010122.7621484,HEARTBEAT,,,,,,,,,,,,,,
1771010122.7770338,ATTITUDE,,,,,,,,,0.015971537679433823,-0.020259235054254532,-0.0006462656310759485,,,
1771010123.107422,ATTITUDE,,,,,,,,,0.014963250607252121,-0.020277604460716248,-0.0005411278107203543,,,
1771010123.1188118,ATTITUDE_QUATERNION,,,,,,,,,,,,,,
1771010123.1349673,ALTITUDE,,,,,,,,587.2476196289062,,,,,,
1771010123.144762,EXTENDED_SYS_STATE,,,,,,,,,,,,,,
1771010123.15999,LOCAL_POSITION_NED,,,,,,,,,,,,,,
1771010123.1684368,SCALED_PRESSURE,,,,,,,,,,,,,,
1771010123.184799,SERVO_OUTPUT_RAW,,,,109,246,139,276,,,,,,,
1771010123.1947196,SYS_STATUS,,,,,,,,,,,,,,
1771010123.2089565,UNKNOWN_8,,,,,,,,,,,,,,
1771010123.227373,GPS_RAW_INT,,,,,,,,,,,,,,
1771010123.2359116,RC_CHANNELS,,,,,,,,,,,,,,
1771010123.2447464,MISSION_CURRENT,,,,,,,,,,,,,,
1771010123.2622993,ATTITUDE,,,,,,,,,0.014225330203771591,-0.020043428987264633,-0.00037795695243403316,,,
1771010123.430075,ATTITUDE_QUATERNION,,,,,,,,,,,,,,
1771010123.440331,BATTERY_STATUS,12.231,0.0,86,,,,,,,,,,,
1771010123.4551265,ESTIMATOR_STATUS,,,,,,,,,,,,,,
1771010123.4645603,ATTITUDE,,,,,,,,,0.013914571143686771,-0.019665589556097984,-0.0005042598932050169,,,
1771010123.5295582,VFR_HUD,,,,,,,,,,,,,,
1771010123.699588,ATTITUDE,,,,,,,,,0.014576173387467861,-0.019584301859140396,-0.0008107478497549891,,,
1771010123.7108977,ATTITUDE_QUATERNION,,,,,,,,,,,,,,
1771010123.7747867,GPS_RAW_INT,,,,,,,,,,,,,,
1771010123.7848299,HEARTBEAT,,,,,,,,,,,,,,
1771010123.8000476,RC_CHANNELS,,,,,,,,,,,,,,
1771010123.964773,ATTITUDE,,,,,,,,,0.014538033865392208,-0.019835909828543663,-0.0007744805770926178,,,
1771010124.0845351,ATTITUDE_QUATERNION,,,,,,,,,,,,,,
1771010124.144893,MISSION_CURRENT,,,,,,,,,,,,,,
1771010124.1645768,ATTITUDE,,,,,,,,,0.01560947671532631,-0.019631551578640938,-0.001176065648905933,,,
1771010124.4391677,ATTITUDE,,,,,,,,,0.015938280150294304,-0.019601454958319664,-0.0013069334672763944,,,
1771010124.4471912,ATTITUDE_QUATERNION,,,,,,,,,,,,,,
1771010124.4648738,VFR_HUD,,,,,,,,,,,,,,
1771010124.4748106,GPS_RAW_INT,,,,,,,,,,,,,,
1771010124.487861,ATTITUDE_TARGET,,,,,,,,,,,,,,
1771010124.5458252,RC_CHANNELS,,,,,,,,,,,,,,
1771010124.6145282,GPS_STATUS,,,,,,,,,,,,,,
1771010124.627595,ATTITUDE,,,,,,,,,0.015972232446074486,-0.019640974700450897,-0.00149317248724401,,,
1771010124.7447278,ATTITUDE_QUATERNION,,,,,,,,,,,,,,
1771010124.7547035,HEARTBEAT,,,,,,,,,,,,,,
1771010124.8726842,ATTITUDE,,,,,,,,,0.01619758829474449,-0.019754638895392418,-0.0016810621600598097,,,
1771010125.0926957,ATTITUDE,,,,,,,,,0.016437020152807236,-0.019860340282320976,-0.0018758056685328484,,,
1771010125.1110754,ATTITUDE_QUATERNION,,,,,,,,,,,,,,
1771010125.1747406,GPS_RAW_INT,,,,,,,,,,,,,,
1771010125.184553,MISSION_CURRENT,,,,,,,,,,,,,,
1771010125.204718,RC_CHANNELS,,,,,,,,,,,,,,
1771010125.3180778,VFR_HUD,,,,,,,,,,,,,,
1771010125.3256984,ATTITUDE,,,,,,,,,0.01665479689836502,-0.019967075437307358,-0.0020836633630096912,,,
1771010125.4475415,ATTITUDE_QUATERNION,,,,,,,,,,,,,,
1771010125.5646539,ATTITUDE,,,,,,,,,0.016871847212314606,-0.020096955820918083,-0.0023121798876672983,,,
1771010125.7848332,HEARTBEAT,,,,,,,,,,,,,,
1771010125.844574,ATTITUDE,,,,,,,,,0.017070597037672997,-0.020164920017123222,-0.002464516321197152,,,
1771010125.8613663,ATTITUDE_QUATERNION,,,,,,,,,,,,,,
1771010125.8724797,GPS_RAW_INT,,,,,,,,,,,,,,
1771010125.9363408,RC_CHANNELS,,,,,,,,,,,,,,
1771010126.0517821,ATTITUDE,,,,,,,,,0.01729959435760975,-0.0202735997736454,-0.002646063221618533,,,
1771010126.1695156,ATTITUDE_QUATERNION,,,,,,,,,,,,,,
1771010126.1775823,VFR_HUD,,,,,,,,,,,,,,
1771010126.1858716,MISSION_CURRENT,,,,,,,,,,,,,,
1771010126.258014,ATTITUDE_TARGET,,,,,,,,,,,,,,
1771010126.2703702,ATTITUDE,,,,,,,,,0.017568346112966537,-0.02043374627828598,-0.002848862437531352,,,
1771010126.5424361,ATTITUDE,,,,,,,,,0.017726343125104904,-0.020453987643122673,-0.003023841418325901,,,
1771010126.5547192,ATTITUDE_QUATERNION,,,,,,,,,,,,,,
1771010126.5659628,ALTITUDE,,,,,,,,586.9041137695312,,,,,,
1771010126.5791962,EXTENDED_SYS_STATE,,,,,,,,,,,,,,
1771010126.594529,LOCAL_POSITION_NED,,,,,,,,,,,,,,
1771010126.6050322,SCALED_PRESSURE,,,,,,,,,,,,,,
1771010126.6190197,SERVO_OUTPUT_RAW,,,,0,0,0,0,,,,,,,
1771010126.6274621,SYS_STATUS,,,,,,,,,,,,,,
1771010126.644488,UNKNOWN_8,,,,,,,,,,,,,,
1771010126.65457,GPS_RAW_INT,,,,,,,,,,,,,,
1771010126.6684246,RC_CHANNELS,,,,,,,,,,,,,,
1771010126.7396154,ATTITUDE,,,,,,,,,0.017918618395924568,-0.02052324265241623,-0.0032604620791971684,,,
1771010126.7510018,HEARTBEAT,,,,,,,,,,,,,,
1771010126.8669682,ATTITUDE_QUATERNION,,,,,,,,,,,,,,
1771010126.9779763,ATTITUDE,,,,,,,,,0.018176564946770668,-0.020765384659171104,-0.0033269003033638,,,
1771010126.9946702,VFR_HUD,,,,,,,,,,,,,,
1771010127.1693943,MISSION_CURRENT,,,,,,,,,,,,,,
1771010127.1763852,ATTITUDE,,,,,,,,,0.01833055540919304,-0.020768966525793076,-0.0033891682978719473,,,
1771010127.2447453,ATTITUDE_QUATERNION,,,,,,,,,,,,,,
1771010127.2546234,GPS_RAW_INT,,,,,,,,,,,,,,
1771010127.2764883,RC_CHANNELS,,,,,,,,,,,,,,
1771010127.4446015,ATTITUDE,,,,,,,,,0.018313422799110413,-0.020730361342430115,-0.003346614772453904,,,
1771010127.5145931,ATTITUDE_QUATERNION,,,,,,,,,,,,,,
1771010127.6347702,ATTITUDE,,,,,,,,,0.017816998064517975,-0.020424826070666313,-0.0030122750904411077,,,
1771010127.7960646,HEARTBEAT,,,,,,,,,,,,,,
1771010127.822452,PING,,,,,,,,,,,,,,
1771010127.8859584,ATTITUDE,,,,,,,,,0.017811620607972145,-0.019897274672985077,-0.0026006291154772043,,,
1771010127.9037614,ATTITUDE_QUATERNION,,,,,,,,,,,,,,
1771010127.9147556,VFR_HUD,,,,,,,,,,,,,,
1771010127.9844816,GPS_RAW_INT,,,,,,,,,,,,,,
1771010127.9946134,ATTITUDE_TARGET,,,,,,,,,,,,,,
1771010128.0079622,RC_CHANNELS,,,,,,,,,,,,,,
1771010128.0693307,GPS_STATUS,,,,,,,,,,,,,,
1771010128.084914,ATTITUDE,,,,,,,,,0.015871230512857437,-0.018612761050462723,-0.0027586782816797495,,,
1771010128.1495957,MISSION_CURRENT,,,,,,,,,,,,,,
1771010128.2712908,ATTITUDE_QUATERNION,,,,,,,,,,,,,,
1771010128.3362157,ATTITUDE,,,,,,,,,0.014934578910470009,-0.017118269577622414,-0.003632925683632493,,,
1771010128.5628755,ATTITUDE,,,,,,,,,0.014891566708683968,-0.017043061554431915,-0.0032566131558269262,,,
1771010128.5747175,ATTITUDE_QUATERNION,,,,,,,,,,,,,,
1771010128.6344738,GPS_RAW_INT,,,,,,,,,,,,,,
1771010128.649983,RC_CHANNELS,,,,,,,,,,,,,,
1771010128.7663078,VFR_HUD,,,,,,,,,,,,,,
1771010128.7749567,HEARTBEAT,,,,,,,,,,,,,,
1771010128.84075,ATTITUDE,,,,,,,,,0.015818368643522263,-0.01700841262936592,-0.0025318956468254328,,,
1771010128.906592,ATTITUDE_QUATERNION,,,,,,,,,,,,,,
1771010129.0233293,ATTITUDE,,,,,,,,,0.017843550071120262,-0.017089413478970528,-0.002693700836971402,,,
1771010129.1865983,MISSION_CURRENT,,,,,,,,,,,,,,
1771010129.3067427,ATTITUDE,,,,,,,,,0.015270630829036236,-0.016629831865429878,-0.0033504061866551638,,,
1771010129.319583,ATTITUDE_QUATERNION,,,,,,,,,,,,,,
1771010129.3280737,GPS_RAW_INT,,,,,,,,,,,,,,
1771010129.3947709,RC_CHANNELS,,,,,,,,,,,,,,
1771010129.5144882,ATTITUDE,,,,,,,,,0.011983531527221203,-0.014306015335023403,-0.005793153308331966,,,
1771010129.6346688,ATTITUDE_QUATERNION,,,,,,,,,,,,,,
1771010129.649356,VFR_HUD,,,,,,,,,,,,,,
1771010129.712369,ATTITUDE_TARGET,,,,,,,,,,,,,,
1771010129.7766035,ATTITUDE,,,,,,,,,0.011883617378771305,-0.01534716784954071,-0.0062345783226192,,,
1771010129.7947078,HEARTBEAT,,,,,,,,,,,,,,
1771010130.0150533,ATTITUDE,,,,,,,,,0.011982412077486515,-0.0156051404774189,-0.006491323467344046,,,
1771010130.0248516,ATTITUDE_QUATERNION,,,,,,,,,,,,,,
1771010130.0392034,ALTITUDE,,,,,,,,586.4813232421875,,,,,,
1771010130.0546055,EXTENDED_SYS_STATE,,,,,,,,,,,,,,
1771010130.068478,LOCAL_POSITION_NED,,,,,,,,,,,,,,
1771010130.0798516,SCALED_PRESSURE,,,,,,,,,,,,,,
1771010130.0869532,SERVO_OUTPUT_RAW,,,,0,0,0,0,,,,,,,
1771010130.1047976,SYS_STATUS,,,,,,,,,,,,,,
1771010130.1146674,UNKNOWN_8,,,,,,,,,,,,,,
1771010130.1286883,GPS_RAW_INT,,,,,,,,,,,,,,
1771010130.1474426,RC_CHANNELS,,,,,,,,,,,,,,
1771010130.154391,MISSION_CURRENT,,,,,,,,,,,,,,
1771010130.2269955,ATTITUDE,,,,,,,,,0.011383133009076118,-0.015897028148174286,-0.0062217069789767265,,,
1771010130.3445249,ATTITUDE_QUATERNION,,,,,,,,,,,,,,
1771010130.404626,BATTERY_STATUS,12.224,0.0,86,,,,,,,,,,,
1771010130.4208157,ESTIMATOR_STATUS,,,,,,,,,,,,,,
1771010130.4289656,ATTITUDE,,,,,,,,,0.011675575748085976,-0.015766065567731857,-0.007052605506032705,,,
1771010130.4945314,VFR_HUD,,,,,,,,,,,,,,
1771010130.716205,ATTITUDE,,,,,,,,,0.013445964083075523,-0.016477519646286964,-0.0067937797866761684,,,
1771010130.740688,ATTITUDE_QUATERNION,,,,,,,,,,,,,,
1771010130.753075,GPS_RAW_INT,,,,,,,,,,,,,,
1771010130.822487,HEARTBEAT,,,,,,,,,,,,,,
1771010130.8344328,RC_CHANNELS,,,,,,,,,,,,,,
1771010130.8979652,ATTITUDE,,,,,,,,,0.015179845504462719,-0.016468049958348274,-0.006887525320053101,,,
1771010131.0239065,ATTITUDE_QUATERNION,,,,,,,,,,,,,,
1771010131.1398578,ATTITUDE,,,,,,,,,0.015005158260464668,-0.016764439642429352,-0.007055575959384441,,,
1771010131.2044914,MISSION_CURRENT,,,,,,,,,,,,,,
1771010131.3690977,ATTITUDE,,,,,,,,,0.014774844981729984,-0.016166582703590393,-0.007345275487750769,,,
1771010131.3778925,ATTITUDE_QUATERNION,,,,,,,,,,,,,,
1771010131.3949306,VFR_HUD,,,,,,,,,,,,,,
1771010131.4131155,GPS_RAW_INT,,,,,,,,,,,,,,
1771010131.4252162,ATTITUDE_TARGET,,,,,,,,,,,,,,
1771010131.4964445,RC_CHANNELS,,,,,,,,,,,,,,
1771010131.5565283,GPS_STATUS,,,,,,,,,,,,,,
1771010131.6258163,ATTITUDE,,,,,,,,,0.019526390358805656,-0.016933100298047066,-0.006418467033654451,,,
1771010131.744654,ATTITUDE_QUATERNION,,,,,,,,,,,,,,
1771010131.761224,HEARTBEAT,,,,,,,,,,,,,,
1771010131.8248732,ATTITUDE,,,,,,,,,0.018306059762835503,-0.017501162365078926,-0.006752742454409599,,,
1771010132.1049695,ATTITUDE,,,,,,,,,0.016843734309077263,-0.01843320205807686,-0.006655560340732336,,,
1771010132.116037,ATTITUDE_QUATERNION,,,,,,,,,,,,,,
1771010132.1291149,GPS_RAW_INT,,,,,,,,,,,,,,
1771010132.1970682,RC_CHANNELS,,,,,,,,,,,,,,
1771010132.204949,MISSION_CURRENT,,,,,,,,,,,,,,
1771010132.221487,VFR_HUD,,,,,,,,,,,,,,
1771010132.2851684,ATTITUDE,,,,,,,,,0.018667280673980713,-0.021185263991355896,-0.005885678809136152,,,
1771010132.4046235,ATTITUDE_QUATERNION,,,,,,,,,,,,,,
1771010132.517482,ATTITUDE,,,,,,,,,0.01691342517733574,-0.01774240843951702,-0.007229086477309465,,,
1771010132.8048668,ATTITUDE,,,,,,,,,0.017024381086230278,-0.017654646188020706,-0.007402864750474691,,,
1771010132.817888,ATTITUDE_QUATERNION,,,,,,,,,,,,,,
1771010132.826386,HEARTBEAT,,,,,,,,,,,,,,
1771010132.8390572,GPS_RAW_INT,,,,,,,,,,,,,,
1771010132.8515239,RC_CHANNELS,,,,,,,,,,,,,,
1771010133.0210922,ATTITUDE,,,,,,,,,0.01700706034898758,-0.017689505591988564,-0.0076699573546648026,,,
1771010133.138232,ATTITUDE_QUATERNION,,,,,,,,,,,,,,
1771010133.1549459,VFR_HUD,,,,,,,,,,,,,,
1771010133.1673293,ATTITUDE_TARGET,,,,,,,,,,,,,,
1771010133.179494,MISSION_CURRENT,,,,,,,,,,,,,,
1771010133.2364705,ATTITUDE,,,,,,,,,0.017122797667980194,-0.01784619130194187,-0.007900259457528591,,,
1771010133.4138663,ATTITUDE,,,,,,,,,0.01728055812418461,-0.017709923908114433,-0.008106651715934277,,,
1771010133.5319736,ATTITUDE_QUATERNION,,,,,,,,,,,,,,
1771010133.5429254,ALTITUDE,,,,,,,,586.9780883789062,,,,,,
1771010133.554875,EXTENDED_SYS_STATE,,,,,,,,,,,,,,
1771010133.5672388,LOCAL_POSITION_NED,,,,,,,,,,,,,,
1771010133.5849252,SCALED_PRESSURE,,,,,,,,,,,,,,
1771010133.5965748,SERVO_OUTPUT_RAW,,,,0,0,0,0,,,,,,,
1771010133.6089802,SYS_STATUS,,,,,,,,,,,,,,
1771010133.6178489,UNKNOWN_8,,,,,,,,,,,,,,
1771010133.626271,GPS_RAW_INT,,,,,,,,,,,,,,
1771010133.6456308,RC_CHANNELS,,,,,,,,,,,,,,
1771010133.7102334,ATTITUDE,,,,,,,,,0.017626678571105003,-0.017691416665911674,-0.008332671597599983,,,
1771010133.8252122,HEARTBEAT,,,,,,,,,,,,,,
1771010133.8433838,ATTITUDE_QUATERNION,,,,,,,,,,,,,,
1771010133.9047499,ATTITUDE,,,,,,,,,0.017939679324626923,-0.017659811303019524,-0.008546826429665089,,,
1771010134.0251725,VFR_HUD,,,,,,,,,,,,,,
1771010134.1449928,ATTITUDE,,,,,,,,,0.017431866377592087,-0.01763685792684555,-0.008370594121515751,,,
1771010134.1547325,ATTITUDE_QUATERNION,,,,,,,,,,,,,,
1771010134.2163186,GPS_RAW_INT,,,,,,,,,,,,,,
1771010134.2298481,MISSION_CURRENT,,,,,,,,,,,,,,
1771010134.2412963,RC_CHANNELS,,,,,,,,,,,,,,
1771010134.3550036,ATTITUDE,,,,,,,,,0.016917496919631958,-0.01791883260011673,-0.008285353891551495,,,
1771010134.5309808,ATTITUDE_QUATERNION,,,,,,,,,,,,,,
1771010134.6453545,ATTITUDE,,,,,,,,,0.01727518066763878,-0.017987387254834175,-0.00829409621655941,,,
1771010134.7664053,HEARTBEAT,,,,,,,,,,,,,,
1771010134.82481,ATTITUDE,,,,,,,,,0.017262233421206474,-0.018137557432055473,-0.008164715021848679,,,
1771010134.8408535,ATTITUDE_QUATERNION,,,,,,,,,,,,,,
1771010134.8550284,VFR_HUD,,,,,,,,,,,,,,
1771010134.9145167,GPS_RAW_INT,,,,,,,,,,,,,,
1771010134.9304826,ATTITUDE_TARGET,,,,,,,,,,,,,,
1771010134.9493299,RC_CHANNELS,,,,,,,,,,,,,,
1771010135.0064247,GPS_STATUS,,,,,,,,,,,,,,
1771010135.0759168,ATTITUDE,,,,,,,,,0.017599234357476234,-0.01816595532000065,-0.008417148143053055,,,
1771010135.195306,ATTITUDE_QUATERNION,,,,,,,,,,,,,,
1771010135.2070317,MISSION_CURRENT,,,,,,,,,,,,,,
1771010135.3248634,ATTITUDE,,,,,,,,,0.017452018335461617,-0.01823219656944275,-0.008698972873389721,,,
1771010135.6008415,ATTITUDE,,,,,,,,,0.0177389457821846,-0.018271416425704956,-0.009022743441164494,,,
1771010135.609275,ATTITUDE_QUATERNION,,,,,,,,,,,,,,
1771010135.6249216,GPS_RAW_INT,,,,,,,,,,,,,,
1771010135.6853585,RC_CHANNELS,,,,,,,,,,,,,,
1771010135.7004046,VFR_HUD,,,,,,,,,,,,,,
1771010135.765453,HEARTBEAT,,,,,,,,,,,,,,
1771010135.7770133,ATTITUDE,,,,,,,,,0.019275758415460587,-0.018012838438153267,-0.009271119721233845,,,
1771010135.94763,ATTITUDE_QUATERNION,,,,,,,,,,,,,,
1771010136.01457,ATTITUDE,,,,,,,,,0.01958274468779564,-0.01790081150829792,-0.00945727713406086,,,
1771010136.2448106,MISSION_CURRENT,,,,,,,,,,,,,,
1771010136.2571712,ATTITUDE,,,,,,,,,0.019821595400571823,-0.017917195335030556,-0.009733240120112896,,,
1771010136.2652352,ATTITUDE_QUATERNION,,,,,,,,,,,,,,
1771010136.284987,GPS_RAW_INT,,,,,,,,,,,,,,
1771010136.3518412,RC_CHANNELS,,,,,,,,,,,,,,
1771010136.4684193,ATTITUDE,,,,,,,,,0.019986916333436966,-0.017872218042612076,-0.009977791458368301,,,
1771010136.5845363,ATTITUDE_QUATERNION,,,,,,,,,,,,,,
1771010136.6034079,VFR_HUD,,,,,,,,,,,,,,
1771010136.6649036,ATTITUDE_TARGET,,,,,,,,,,,,,,
1771010136.6785226,ATTITUDE,,,,,,,,,0.020239077508449554,-0.01779397763311863,-0.010241151787340641,,,
1771010136.7447512,HEARTBEAT,,,,,,,,,,,,,,
1771010137.0192125,ATTITUDE,,,,,,,,,0.020500797778367996,-0.01772073470056057,-0.010570215061306953,,,
1771010137.0348363,ATTITUDE_QUATERNION,,,,,,,,,,,,,,
1771010137.045539,ALTITUDE,,,,,,,,586.99658203125,,,,,,
1771010137.0577054,EXTENDED_SYS_STATE,,,,,,,,,,,,,,
1771010137.0699108,LOCAL_POSITION_NED,,,,,,,,,,,,,,
1771010137.0866587,SCALED_PRESSURE,,,,,,,,,,,,,,
1771010137.0998886,SERVO_OUTPUT_RAW,,,,0,0,0,0,,,,,,,
1771010137.110691,SYS_STATUS,,,,,,,,,,,,,,
1771010137.1245353,UNKNOWN_8,,,,,,,,,,,,,,
1771010137.135701,GPS_RAW_INT,,,,,,,,,,,,,,
1771010137.1445394,RC_CHANNELS,,,,,,,,,,,,,,
1771010137.160432,ATTITUDE,,,,,,,,,0.02073943242430687,-0.01777958683669567,-0.010803187265992165,,,
1771010137.2279623,MISSION_CURRENT,,,,,,,,,,,,,,
1771010137.244883,ATTITUDE_QUATERNION,,,,,,,,,,,,,,
1771010137.3077862,BATTERY_STATUS,12.224,0.0,86,,,,,,,,,,,
1771010137.314831,ESTIMATOR_STATUS,,,,,,,,,,,,,,
1771010137.4382906,ATTITUDE,,,,,,,,,0.020964276045560837,-0.017748989164829254,-0.011119486764073372,,,
1771010137.446589,VFR_HUD,,,,,,,,,,,,,,
1771010137.6148667,ATTITUDE,,,,,,,,,0.021075839176774025,-0.017673183232545853,-0.011351366527378559,,,
1771010137.6318336,ATTITUDE_QUATERNION,,,,,,,,,,,,,,
1771010137.7037628,GPS_RAW_INT,,,,,,,,,,,,,,
1771010137.7149704,RC_CHANNELS,,,,,,,,,,,,,,
1771010137.784791,HEARTBEAT,,,,,,,,,,,,,,
1771010137.7949321,PING,,,,,,,,,,,,,,
1771010137.9124916,ATTITUDE,,,,,,,,,0.021412795409560204,-0.017678290605545044,-0.011560734361410141,,,
1771010137.976588,ATTITUDE_QUATERNION,,,,,,,,,,,,,,
1771010138.091165,ATTITUDE,,,,,,,,,0.02173558995127678,-0.01756720244884491,-0.011859449557960033,,,
1771010138.261629,MISSION_CURRENT,,,,,,,,,,,,,,
1771010138.3246226,ATTITUDE,,,,,,,,,0.022045090794563293,-0.0174493957310915,-0.012014387175440788,,,
1771010138.3891454,ATTITUDE_QUATERNION,,,,,,,,,,,,,,
1771010138.4032845,VFR_HUD,,,,,,,,,,,,,,
1771010138.4148505,GPS_RAW_INT,,,,,,,,,,,,,,
1771010138.4269898,ATTITUDE_TARGET,,,,,,,,,,,,,,
1771010138.49063,RC_CHANNELS,,,,,,,,,,,,,,
1771010138.504847,GPS_STATUS,,,,,,,,,,,,,,
1771010138.5653224,ATTITUDE,,,,,,,,,0.022091278806328773,-0.017526967450976372,-0.011942252516746521,,,
1771010138.688829,ATTITUDE_QUATERNION,,,,,,,,,,,,,,
1771010138.7515242,HEARTBEAT,,,,,,,,,,,,,,
1771010138.8210406,ATTITUDE,,,,,,,,,0.02195887453854084,-0.01751059480011463,-0.011808136478066444,,,
1771010139.037848,ATTITUDE,,,,,,,,,0.021685149520635605,-0.017286669462919235,-0.011467872187495232,,,
1771010139.0549712,ATTITUDE_QUATERNION,,,,,,,,,,,,,,
1771010139.0644257,GPS_RAW_INT,,,,,,,,,,,,,,
1771010139.130807,RC_CHANNELS,,,,,,,,,,,,,,
1771010139.197231,VFR_HUD,,,,,,,,,,,,,,
1771010139.2659457,MISSION_CURRENT,,,,,,,,,,,,,,
1771010139.2744706,ATTITUDE,,,,,,,,,0.022479025647044182,-0.0172230564057827,-0.03287022188305855,,,
1771010139.394796,ATTITUDE_QUATERNION,,,,,,,,,,,,,,
1771010139.5169544,ATTITUDE,,,,,,,,,0.02058550901710987,-0.015456825494766235,-0.028484733775258064,,,
1771010139.6918993,ATTITUDE,,,,,,,,,0.01728852279484272,-0.015781527385115623,-0.02864479459822178,,,
1771010139.7047095,ATTITUDE_QUATERNION,,,,,,,,,,,,,,
1771010139.7674594,HEARTBEAT,,,,,,,,,,,,,,
1771010139.788941,GPS_RAW_INT,,,,,,,,,,,,,,
1771010139.8548243,RC_CHANNELS,,,,,,,,,,,,,,
1771010139.9198563,VIBRATION,,,,,,,,,,,,,,
1771010139.9849696,ATTITUDE,,,,,,,,,0.015421564690768719,-0.016301380470395088,-0.029236774891614914,,,
1771010140.044866,ATTITUDE_QUATERNION,,,,,,,,,,,,,,
1771010140.0611107,VFR_HUD,,,,,,,,,,,,,,
1771010140.1269732,ATTITUDE_TARGET,,,,,,,,,,,,,,
1771010140.1849368,ATTITUDE,,,,,,,,,0.01442097220569849,-0.01560360286384821,-0.029584921896457672,,,
1771010140.2547894,MISSION_CURRENT,,,,,,,,,,,,,,
1771010140.4800823,ATTITUDE,,,,,,,,,0.016043303534388542,-0.015904687345027924,-0.029799582436680794,,,
1771010140.4886906,ATTITUDE_QUATERNION,,,,,,,,,,,,,,
1771010140.5052018,ALTITUDE,,,,,,,,587.0838012695312,,,,,,
1771010140.5149252,EXTENDED_SYS_STATE,,,,,,,,,,,,,,
1771010140.5246418,LOCAL_POSITION_NED,,,,,,,,,,,,,,
1771010140.5381148,SCALED_PRESSURE,,,,,,,,,,,,,,
1771010140.555226,SERVO_OUTPUT_RAW,,,,0,0,0,0,,,,,,,
1771010140.564928,SYS_STATUS,,,,,,,,,,,,,,
1771010140.5799587,UNKNOWN_8,,,,,,,,,,,,,,
1771010140.594831,GPS_RAW_INT,,,,,,,,,,,,,,
1771010140.6051652,RC_CHANNELS,,,,,,,,,,,,,,
1771010140.61797,ATTITUDE,,,,,,,,,0.016635118052363396,-0.016625167801976204,-0.03058766946196556,,,
1771010140.7893116,HEARTBEAT,,,,,,,,,,,,,,
1771010140.8060849,ATTITUDE_QUATERNION,,,,,,,,,,,,,,
1771010140.8662622,ATTITUDE,,,,,,,,,0.018464509397745132,-0.01689288578927517,-0.03015480563044548,,,
1771010140.934906,VFR_HUD,,,,,,,,,,,,,,
1771010141.1060333,ATTITUDE,,,,,,,,,0.018661780282855034,-0.016880547627806664,-0.030093401670455933,,,
1771010141.1184053,ATTITUDE_QUATERNION,,,,,,,,,,,,,,
1771010141.128117,GPS_RAW_INT,,,,,,,,,,,,,,
1771010141.1950877,RC_CHANNELS,,,,,,,,,,,,,,
1771010141.2555444,MISSION_CURRENT,,,,,,,,,,,,,,
1771010141.3856738,ATTITUDE,,,,,,,,,0.01961519569158554,-0.01629549078643322,-0.03043544851243496,,,
1771010141.4487894,ATTITUDE_QUATERNION,,,,,,,,,,,,,,
1771010141.56478,ATTITUDE,,,,,,,,,0.019043169915676117,-0.018726319074630737,-0.026403916999697685,,,
1771010141.7897396,HEARTBEAT,,,,,,,,,,,,,,
1771010141.8566206,ATTITUDE,,,,,,,,,0.02014365792274475,-0.017775246873497963,-0.0273364819586277,,,
1771010141.8729572,ATTITUDE_QUATERNION,,,,,,,,,,,,,,
1771010141.8848238,VFR_HUD,,,,,,,,,,,,,,
1771010141.8973272,GPS_RAW_INT,,,,,,,,,,,,,,
1771010141.905178,ATTITUDE_TARGET,,,,,,,,,,,,,,
1771010141.921105,RC_CHANNELS,,,,,,,,,,,,,,
1771010141.9851584,GPS_STATUS,,,,,,,,,,,,,,
1771010142.048808,ATTITUDE,,,,,,,,,0.02113965153694153,-0.018365420401096344,-0.02836146578192711,,,
1771010142.1154077,ATTITUDE_QUATERNION,,,,,,,,,,,,,,
1771010142.295876,ATTITUDE,,,,,,,,,0.020972350612282753,-0.0189491156488657,-0.028064167127013206,,,
1771010142.3070564,MISSION_CURRENT,,,,,,,,,,,,,,
1771010142.4847674,ATTITUDE,,,,,,,,,0.020439226180315018,-0.02051788941025734,-0.027423502877354622,,,
1771010142.4949224,ATTITUDE_QUATERNION,,,,,,,,,,,,,,
1771010142.5587726,GPS_RAW_INT,,,,,,,,,,,,,,
1771010142.6234758,RC_CHANNELS,,,,,,,,,,,,,,
1771010142.6955817,VFR_HUD,,,,,,,,,,,,,,
1771010142.7622654,ATTITUDE,,,,,,,,,0.019429797306656837,-0.01948893442749977,-0.026916349306702614,,,
1771010142.7731125,HEARTBEAT,,,,,,,,,,,,,,
1771010142.8398156,ATTITUDE_QUATERNION,,,,,,,,,,,,,,
1771010142.9547632,ATTITUDE,,,,,,,,,0.019476938992738724,-0.018877923488616943,-0.026955632492899895,,,
1771010143.2295952,ATTITUDE,,,,,,,,,0.015873663127422333,-0.019813258200883865,-0.02569185569882393,,,
1771010143.2434287,ATTITUDE_QUATERNION,,,,,,,,,,,,,,
1771010143.260773,GPS_RAW_INT,,,,,,,,,,,,,,
1771010143.2727926,MISSION_CURRENT,,,,,,,,,,,,,,
1771010143.334762,RC_CHANNELS,,,,,,,,,,,,,,
1771010143.4074597,ATTITUDE,,,,,,,,,0.019140802323818207,-0.018470361828804016,-0.02685350924730301,,,
1771010143.5282795,ATTITUDE_QUATERNION,,,,,,,,,,,,,,
1771010143.5347786,VFR_HUD,,,,,,,,,,,,,,
1771010143.6587584,ATTITUDE_TARGET,,,,,,,,,,,,,,
1771010143.66699,ATTITUDE,,,,,,,,,0.022478479892015457,-0.01874486170709133,-0.028072437271475792,,,
1771010143.734509,HEARTBEAT,,,,,,,,,,,,,,
1771010143.96476,ATTITUDE,,,,,,,,,0.01854223757982254,-0.01921195536851883,-0.029039781540632248,,,
1771010143.9747052,ATTITUDE_QUATERNION,,,,,,,,,,,,,,
1771010143.9876494,ALTITUDE,,,,,,,,587.1947631835938,,,,,,
1771010143.9960296,EXTENDED_SYS_STATE,,,,,,,,,,,,,,
1771010144.013081,LOCAL_POSITION_NED,,,,,,,,,,,,,,
1771010144.0247116,SCALED_PRESSURE,,,,,,,,,,,,,,
1771010144.0444543,SERVO_OUTPUT_RAW,,,,0,0,0,0,,,,,,,
1771010144.054882,SYS_STATUS,,,,,,,,,,,,,,
1771010144.0647452,UNKNOWN_8,,,,,,,,,,,,,,
1771010144.0799026,GPS_RAW_INT,,,,,,,,,,,,,,
1771010144.0883195,RC_CHANNELS,,,,,,,,,,,,,,
1771010144.1562119,ATTITUDE,,,,,,,,,0.01958891563117504,-0.01885482482612133,-0.027112144976854324,,,
1771010144.2736773,ATTITUDE_QUATERNION,,,,,,,,,,,,,,
1771010144.2848437,BATTERY_STATUS,12.224,0.0,86,,,,,,,,,,,
1771010144.3029501,ESTIMATOR_STATUS,,,,,,,,,,,,,,
1771010144.3148096,MISSION_CURRENT,,,,,,,,,,,,,,
1771010144.379761,ATTITUDE,,,,,,,,,0.022275790572166443,-0.01889726333320141,-0.029539598152041435,,,
1771010144.3968606,VFR_HUD,,,,,,,,,,,,,,
1771010144.62507,ATTITUDE,,,,,,,,,0.01696682721376419,-0.018373694270849228,-0.025897368788719177,,,
1771010144.6376917,ATTITUDE_QUATERNION,,,,,,,,,,,,,,
1771010144.654468,GPS_RAW_INT,,,,,,,,,,,,,,
1771010144.7205272,RC_CHANNELS,,,,,,,,,,,,,,
1771010144.780206,HEARTBEAT,,,,,,,,,,,,,,
1771010144.8483713,ATTITUDE,,,,,,,,,0.017157159745693207,-0.018943028524518013,-0.021709270775318146,,,
1771010144.9168704,ATTITUDE_QUATERNION,,,,,,,,,,,,,,
1771010145.037371,ATTITUDE,,,,,,,,,0.016273630782961845,-0.01684069074690342,-0.022894084453582764,,,
1771010145.3150318,ATTITUDE,,,,,,,,,0.01997237838804722,-0.01731834188103676,-0.027042822912335396,,,
1771010145.3281975,ATTITUDE_QUATERNION,,,,,,,,,,,,,,
1771010145.3403647,MISSION_CURRENT,,,,,,,,,,,,,,
1771010145.3516817,VFR_HUD,,,,,,,,,,,,,,
1771010145.3689363,GPS_RAW_INT,,,,,,,,,,,,,,
1771010145.3769562,ATTITUDE_TARGET,,,,,,,,,,,,,,
1771010145.3932455,RC_CHANNELS,,,,,,,,,,,,,,
1771010145.4605556,GPS_STATUS,,,,,,,,,,,,,,
1771010145.5269325,ATTITUDE,,,,,,,,,0.016931599006056786,-0.017470071092247963,-0.025907117873430252,,,
1771010145.6458828,ATTITUDE_QUATERNION,,,,,,,,,,,,,,
1771010145.761283,ATTITUDE,,,,,,,,,0.016236303374171257,-0.017657844349741936,-0.025239886716008186,,,
1771010145.7744403,HEARTBEAT,,,,,,,,,,,,,,
1771010145.9944737,ATTITUDE,,,,,,,,,0.014163064770400524,-0.017705999314785004,-0.02576138637959957,,,
1771010146.0062633,ATTITUDE_QUATERNION,,,,,,,,,,,,,,
1771010146.0145507,GPS_RAW_INT,,,,,,,,,,,,,,
1771010146.0808961,RC_CHANNELS,,,,,,,,,,,,,,
1771010146.1466844,VFR_HUD,,,,,,,,,,,,,,
1771010146.2117643,ATTITUDE,,,,,,,,,0.011156490072607994,-0.020757019519805908,-0.0210352074354887,,,
1771010146.2745175,MISSION_CURRENT,,,,,,,,,,,,,,
1771010146.3360374,ATTITUDE_QUATERNION,,,,,,,,,,,,,,
1771010146.4042954,ATTITUDE,,,,,,,,,0.015506278723478317,-0.019683968275785446,-0.02210702933371067,,,
1771010146.6789055,ATTITUDE,,,,,,,,,0.01589190401136875,-0.017766540870070457,-0.023285403847694397,,,
1771010146.6873426,ATTITUDE_QUATERNION,,,,,,,,,,,,,,
1771010146.754423,GPS_RAW_INT,,,,,,,,,,,,,,
1771010146.7644885,HEARTBEAT,,,,,,,,,,,,,,
1771010146.779638,RC_CHANNELS,,,,,,,,,,,,,,
1771010146.896964,ATTITUDE,,,,,,,,,0.016433609649538994,-0.017157359048724174,-0.023529410362243652,,,
1771010147.0683863,ATTITUDE_QUATERNION,,,,,,,,,,,,,,
1771010147.0853715,VFR_HUD,,,,,,,,,,,,,,
1771010147.0990255,ATTITUDE_TARGET,,,,,,,,,,,,,,
1771010147.1682703,ATTITUDE,,,,,,,,,0.01684422977268696,-0.016995495185256004,-0.023863937705755234,,,
1771010147.2744539,MISSION_CURRENT,,,,,,,,,,,,,,
1771010147.402255,ATTITUDE,,,,,,,,,0.017171185463666916,-0.016855362802743912,-0.024105647578835487,,,
1771010147.414333,ATTITUDE_QUATERNION,,,,,,,,,,,,,,
1771010147.4185927,ALTITUDE,,,,,,,,586.8697509765625,,,,,,
1771010147.4446921,EXTENDED_SYS_STATE,,,,,,,,,,,,,,
1771010147.456443,LOCAL_POSITION_NED,,,,,,,,,,,,,,
1771010147.4693313,SCALED_PRESSURE,,,,,,,,,,,,,,
1771010147.4776,SERVO_OUTPUT_RAW,,,,0,0,0,0,,,,,,,
1771010147.4915948,SYS_STATUS,,,,,,,,,,,,,,
1771010147.504484,UNKNOWN_8,,,,,,,,,,,,,,
1771010147.5142326,GPS_RAW_INT,,,,,,,,,,,,,,
1771010147.5343788,RC_CHANNELS,,,,,,,,,,,,,,
1771010147.594273,ATTITUDE,,,,,,,,,0.01752522774040699,-0.016767481341958046,-0.02437361143529415,,,
1771010147.7143793,ATTITUDE_QUATERNION,,,,,,,,,,,,,,
1771010147.7842083,HEARTBEAT,,,,,,,,,,,,,,
1771010147.7946846,PING,,,,,,,,,,,,,,
1771010147.8103187,ATTITUDE,,,,,,,,,0.017786601558327675,-0.016581282019615173,-0.02460717037320137,,,
1771010147.8756008,VFR_HUD,,,,,,,,,,,,,,
1771010148.0946996,ATTITUDE,,,,,,,,,0.018068376928567886,-0.016474468633532524,-0.024815257638692856,,,
1771010148.1145391,ATTITUDE_QUATERNION,,,,,,,,,,,,,,
1771010148.1243725,GPS_RAW_INT,,,,,,,,,,,,,,
1771010148.1874514,RC_CHANNELS,,,,,,,,,,,,,,
1771010148.304559,ATTITUDE,,,,,,,,,0.01828499138355255,-0.01638072542846203,-0.024972788989543915,,,
1771010148.3144836,MISSION_CURRENT,,,,,,,,,,,,,,
1771010148.4343286,ATTITUDE_QUATERNION,,,,,,,,,,,,,,
1771010148.5545268,ATTITUDE,,,,,,,,,0.023696132004261017,-0.016948949545621872,-0.023392245173454285,,,
1771010148.776983,HEARTBEAT,,,,,,,,,,,,,,
1771010148.784648,ATTITUDE,,,,,,,,,0.017484476789832115,-0.01640484109520912,-0.023775164037942886,,,
1771010148.801587,ATTITUDE_QUATERNION,,,,,,,,,,,,,,
1771010148.8181207,VFR_HUD,,,,,,,,,,,,,,
1771010148.8262856,GPS_RAW_INT,,,,,,,,,,,,,,
1771010148.8443482,ATTITUDE_TARGET,,,,,,,,,,,,,,
1771010148.8547437,RC_CHANNELS,,,,,,,,,,,,,,
1771010148.9212205,GPS_STATUS,,,,,,,,,,,,,,
1771010149.0360935,ATTITUDE,,,,,,,,,0.020223228260874748,-0.016399357467889786,-0.023452337831258774,,,
1771010149.0955079,ATTITUDE_QUATERNION,,,,,,,,,,,,,,
1771010149.223646,ATTITUDE,,,,,,,,,0.02470463514328003,-0.016261326149106026,-0.020627889782190323,,,
1771010149.3446412,MISSION_CURRENT,,,,,,,,,,,,,,
1771010149.517631,ATTITUDE,,,,,,,,,0.026268968358635902,-0.016676228493452072,-0.02128061093389988,,,
1771010149.5261476,ATTITUDE_QUATERNION,,,,,,,,,,,,,,
1771010149.5412903,GPS_RAW_INT,,,,,,,,,,,,,,
1771010149.604434,RC_CHANNELS,,,,,,,,,,,,,,
1771010149.6178455,VFR_HUD,,,,,,,,,,,,,,
1771010149.6843204,ATTITUDE,,,,,,,,,0.040793005377054214,-0.02271457388997078,-0.015148567035794258,,,
1771010149.7504296,HEARTBEAT,,,,,,,,,,,,,,
