Timestamp,Message Type,Voltage (V),Current (A),Remaining (%),Servo1 Output,Servo2 Output,Servo8 Output,Servo4 Output,Altitude (m),Roll,Pitch,Yaw,Yaw Rate (rad/s),Acceleration Z (m/s^2),Local X (m),Local Y (m),Local Z (m),Vibration X,Vibration Y,Vibration Z,ESC Info
1771017273.1393585,ATTITUDE,,,,,,,,,-0.0016751250950619578,-0.021402033045887947,-1.8100754022598267,0.0003185314417351037,,,,,,,,
1771017273.3073545,ATTITUDE,,,,,,,,,-0.0017300416948273778,-0.021319668740034103,-1.8101005554199219,-2.348731504753232e-05,,,,,,,,
1771017273.5642967,ATTITUDE,,,,,,,,,-0.0017127771861851215,-0.021310318261384964,-1.810096263885498,0.0011768864933401346,,,,,,,,
1771017273.8083403,ATTITUDE,,,,,,,,,-0.0017508059972897172,-0.0213035736232996,-1.8100532293319702,-0.0011544369626790285,,,,,,,,
1771017273.9899657,ATTITUDE,,,,,,,,,-0.0017865330446511507,-0.021277103573083878,-1.8100764751434326,0.00037077016895636916,,,,,,,,
1771017274.212343,ATTITUDE,,,,,,,,,-0.0018522442551329732,-0.021295690909028053,-1.8101228475570679,-0.0005300163174979389,,,,,,,,
1771017274.4803367,ATTITUDE,,,,,,,,,-0.0018262597732245922,-0.02126585878431797,-1.8101632595062256,-0.0006908969371579587,,,,,,,,
1771017274.544331,ALTITUDE,,,,,,,,597.8063354492188,,,,,,,,,,,,
1771017274.5758557,LOCAL_POSITION_NED,,,,,,,,,,,,,,11.132072448730469,1.7326020002365112,0.4230189025402069,,,,
1771017274.605855,SERVO_OUTPUT_RAW,,,,0,0,0,0,,,,,,,,,,,,,
1771017274.6952903,ATTITUDE,,,,,,,,,-0.0018257182091474533,-0.021282078698277473,-1.8101651668548584,0.000569808529689908,,,,,,,,
1771017274.886708,ATTITUDE,,,,,,,,,-0.0016813202528283,-0.021236522123217583,-1.8101224899291992,-0.0015353390481323004,,,,,,,,
1771017274.899717,BATTERY_STATUS,11.979,0.0,77,,,,,,,,,,,,,,,,,
1771017275.062998,ATTITUDE,,,,,,,,,-0.0014546415768563747,-0.02120138518512249,-1.8101006746292114,0.0005091950879432261,,,,,,,,
1771017275.2984002,ATTITUDE,,,,,,,,,-0.0013818482402712107,-0.021213827654719353,-1.8100972175598145,0.0002706481027416885,,,,,,,,
1771017275.4974554,ATTITUDE,,,,,,,,,-0.0012003110023215413,-0.021245857700705528,-1.8101452589035034,-0.001421844121068716,,,,,,,,
1771017275.7295537,ATTITUDE,,,,,,,,,-0.0010106038535013795,-0.021270323544740677,-1.8102362155914307,-0.001336753135547042,,,,,,,,
1771017275.9730065,ATTITUDE,,,,,,,,,-0.0008459421806037426,-0.021263668313622475,-1.810285210609436,-0.0005374994943849742,,,,,,,,
1771017276.1488395,ATTITUDE,,,,,,,,,-0.0007169617456384003,-0.021307891234755516,-1.8103103637695312,-0.0007876813178882003,,,,,,,,
1771017276.386937,ATTITUDE,,,,,,,,,-0.0006420529098249972,-0.02134714089334011,-1.8103100061416626,-0.0003497956204228103,,,,,,,,
1771017276.569652,ATTITUDE,,,,,,,,,-0.0005841417005285621,-0.021379081532359123,-1.8103524446487427,0.0002834360348060727,,,,,,,,
1771017276.8444018,ATTITUDE,,,,,,,,,-0.0004955940530635417,-0.02133180946111679,-1.810362458229065,-0.0004258665139786899,,,,,,,,
1771017277.0539637,ATTITUDE,,,,,,,,,-0.0003511521499603987,-0.02132413722574711,-1.8104223012924194,0.0004553079488687217,,,,,,,,
1771017277.306646,ATTITUDE,,,,,,,,,-0.0002616987912915647,-0.02133246324956417,-1.8105964660644531,-0.0011588693596422672,,,,,,,,
1771017277.4988961,ATTITUDE,,,,,,,,,-0.00021332429605536163,-0.02135339193046093,-1.8107848167419434,1.2538046576082706e-05,,,,,,,,
1771017277.7548664,ATTITUDE,,,,,,,,,-0.00012780024553649127,-0.021418441087007523,-1.8109537363052368,-0.00018398580141365528,,,,,,,,
1771017278.0385046,ALTITUDE,,,,,,,,597.36767578125,,,,,,,,,,,,
1771017278.0685046,LOCAL_POSITION_NED,,,,,,,,,,,,,,11.136957168579102,1.730578064918518,0.5131373405456543,,,,
1771017278.092507,SERVO_OUTPUT_RAW,,,,0,0,0,0,,,,,,,,,,,,,
1771017278.1285102,ATTITUDE,,,,,,,,,-7.604313577758148e-05,-0.021402429789304733,-1.8110322952270508,0.0004921547952108085,,,,,,,,
1771017278.247038,ATTITUDE,,,,,,,,,1.3067590771242976e-05,-0.021420927718281746,-1.8110918998718262,-4.978029755875468e-05,,,,,,,,
1771017278.4435027,ATTITUDE,,,,,,,,,5.630575105897151e-05,-0.02139909565448761,-1.8112871646881104,-0.0005478890961967409,,,,,,,,
1771017278.7314196,ATTITUDE,,,,,,,,,8.112091018119827e-05,-0.021384647116065025,-1.8115347623825073,0.0005492046475410461,,,,,,,,
1771017278.914312,ATTITUDE,,,,,,,,,9.369185863761231e-05,-0.02132326364517212,-1.8116607666015625,-0.0007996061467565596,,,,,,,,
1771017279.1582773,ATTITUDE,,,,,,,,,6.0188311181264e-05,-0.021334372460842133,-1.8117164373397827,0.00044855321175418794,,,,,,,,
1771017279.390382,ATTITUDE,,,,,,,,,4.503220770857297e-05,-0.02129874937236309,-1.811861276626587,-0.00013521889923140407,,,,,,,,
1771017279.6122553,ATTITUDE,,,,,,,,,-3.6688452382804826e-05,-0.021286483854055405,-1.8121140003204346,-0.0009233674500137568,,,,,,,,
1771017279.8503602,ATTITUDE,,,,,,,,,-0.00012414256343618035,-0.021235866472125053,-1.8123157024383545,0.00011665929923765361,,,,,,,,
1771017280.0469368,ATTITUDE,,,,,,,,,-0.00022347891354002059,-0.02114800363779068,-1.8125309944152832,-0.0010607207659631968,,,,,,,,
1771017280.327057,ATTITUDE,,,,,,,,,-0.0002908899914473295,-0.021131986752152443,-1.8125953674316406,0.00019641738617792726,,,,,,,,
1771017280.5104907,ATTITUDE,,,,,,,,,-0.00036036691744811833,-0.02108664996922016,-1.8125685453414917,0.00041866215178743005,,,,,,,,
1771017280.8066955,ATTITUDE,,,,,,,,,-0.00042077351827174425,-0.021051209419965744,-1.8125675916671753,-0.0009104700293391943,,,,,,,,
1771017280.9647367,ATTITUDE,,,,,,,,,-0.00046166000538505614,-0.02102973312139511,-1.812587857246399,-0.00012149597750976682,,,,,,,,
1771017281.2398915,ATTITUDE,,,,,,,,,-0.00046454957919195294,-0.020933572202920914,-1.8125636577606201,-0.000816298823338002,,,,,,,,
1771017281.4600453,ALTITUDE,,,,,,,,597.5447387695312,,,,,,,,,,,,
1771017281.4840443,LOCAL_POSITION_NED,,,,,,,,,,,,,,11.134758949279785,1.731978178024292,0.5784429311752319,,,,
1771017281.514053,SERVO_OUTPUT_RAW,,,,0,0,0,0,,,,,,,,,,,,,
1771017281.550049,ATTITUDE,,,,,,,,,-0.0005604485631920397,-0.020870063453912735,-1.812534213066101,-0.0013429676182568073,,,,,,,,
1771017281.705624,ATTITUDE,,,,,,,,,-0.000604705885052681,-0.020837536081671715,-1.8124934434890747,-6.067520007491112e-05,,,,,,,,
1771017281.8334327,BATTERY_STATUS,11.98,0.0,77,,,,,,,,,,,,,,,,,
1771017281.92196,ATTITUDE,,,,,,,,,-0.0006161904311738908,-0.020818257704377174,-1.812501072883606,-9.235466131940484e-05,,,,,,,,
1771017282.172056,ATTITUDE,,,,,,,,,-0.0005596306873485446,-0.02078830637037754,-1.8124477863311768,-0.0080177690833807,,,,,,,,
1771017282.3818257,ATTITUDE,,,,,,,,,-0.0005788596463389695,-0.01913469098508358,-1.8122504949569702,0.015385174192488194,,,,,,,,
1771017282.6137109,ATTITUDE,,,,,,,,,-0.0007139380322769284,-0.01877077855169773,-1.812307596206665,0.013684920035302639,,,,,,,,
1771017282.8517742,ATTITUDE,,,,,,,,,-0.0005871388129889965,-0.018718039616942406,-1.8118395805358887,0.02175646834075451,,,,,,,,
1771017283.0955524,ATTITUDE,,,,,,,,,-0.0003258035285398364,-0.018499167636036873,-1.8119838237762451,0.01893310435116291,,,,,,,,
1771017283.3280385,ATTITUDE,,,,,,,,,-0.00034641235833987594,-0.017418114468455315,-1.8120568990707397,-0.02359825186431408,,,,,,,,
1771017283.60266,ATTITUDE,,,,,,,,,0.00039084069430828094,-0.01618908904492855,-1.8111298084259033,0.03727676346898079,,,,,,,,
1771017283.770676,ATTITUDE,,,,,,,,,4.8253143177134916e-05,-0.013780079782009125,-1.8110493421554565,0.005685075186192989,,,,,,,,
1771017284.0206277,ATTITUDE,,,,,,,,,0.0011583195300772786,-0.013587076216936111,-1.8107537031173706,0.015608280897140503,,,,,,,,
1771017284.2827349,ATTITUDE,,,,,,,,,0.0009970582323148847,-0.009513898752629757,-1.8100852966308594,0.021930459886789322,,,,,,,,
1771017284.4902637,ATTITUDE,,,,,,,,,-0.0005569893401116133,-0.008169140666723251,-1.8076887130737305,0.018688667565584183,,,,,,,,
1771017284.693446,ATTITUDE,,,,,,,,,0.000660789490211755,-0.002341365674510598,-1.8068128824234009,-0.006833293009549379,,,,,,,,
1771017284.9204466,ALTITUDE,,,,,,,,597.653076171875,,,,,,,,,,,,
1771017284.9958336,LOCAL_POSITION_NED,,,,,,,,,,,,,,11.262785911560059,1.728330373764038,0.6218525171279907,,,,
1771017285.0198364,SERVO_OUTPUT_RAW,,,,641,615,705,611,,,,,,,,,,,,,
1771017285.06783,ATTITUDE,,,,,,,,,-0.0003218716592527926,-0.002167795319110155,-1.8002771139144897,0.02509554848074913,,,,,,,,
1771017285.1853542,ATTITUDE,,,,,,,,,-0.0003512744151521474,3.1070070690475404e-05,-1.7895132303237915,0.08967798948287964,,,,,,,,
1771017285.4190152,ATTITUDE,,,,,,,,,-0.0009419728885404766,0.00648884940892458,-1.7662100791931152,0.14966018497943878,,,,,,,,
1771017285.6524296,ATTITUDE,,,,,,,,,-0.0009158257162198424,0.0025277077220380306,-1.7295771837234497,0.10317571461200714,,,,,,,,
1771017285.9085267,ATTITUDE,,,,,,,,,0.0006066735950298607,0.004426424391567707,-1.6661319732666016,0.47649434208869934,,,,,,,,
1771017286.119095,ATTITUDE,,,,,,,,,-0.001075269654393196,0.0007405946380458772,-1.5513651371002197,0.6011176109313965,,,,,,,,
1771017286.363193,ATTITUDE,,,,,,,,,-0.0008331920835189521,0.007146003656089306,-1.3728729486465454,0.9310256242752075,,,,,,,,
1771017286.5672786,ATTITUDE,,,,,,,,,-0.00047482180525548756,0.005776549689471722,-1.1060199737548828,1.397294044494629,,,,,,,,
1771017286.8050082,ATTITUDE,,,,,,,,,-0.0009005835745483637,0.006744086276739836,-0.7313718199729919,1.9438798427581787,,,,,,,,
1771017287.036317,ATTITUDE,,,,,,,,,0.0008627543575130403,0.00387354614213109,-0.2512585520744324,2.1992733478546143,,,,,,,,
1771017287.2223647,ATTITUDE,,,,,,,,,-0.0022245789878070354,-0.006326782051473856,0.2739214599132538,2.4004647731781006,,,,,,,,
1771017287.5182757,ATTITUDE,,,,,,,,,-1.1341517165419646e-05,0.004283049143850803,0.8476053476333618,2.439703941345215,,,,,,,,
1771017287.7514813,ATTITUDE,,,,,,,,,-0.0028655342757701874,0.0004850393161177635,1.4352455139160156,2.696031332015991,,,,,,,,
1771017287.968041,ATTITUDE,,,,,,,,,-0.0008916141814552248,-0.0030325741972774267,2.0811240673065186,2.828378438949585,,,,,,,,
1771017288.1834896,ATTITUDE,,,,,,,,,0.0006013671518303454,0.006379623431712389,2.74733304977417,3.026041269302368,,,,,,,,
1771017288.4561224,ALTITUDE,,,,,,,,597.81689453125,,,,,,,,,,,,
1771017288.4801273,LOCAL_POSITION_NED,,,,,,,,,,,,,,11.99384880065918,1.8487004041671753,0.8858730792999268,,,,
1771017288.504122,SERVO_OUTPUT_RAW,,,,109,1574,1584,153,,,,,,,,,,,,,
1771017288.5281239,ATTITUDE,,,,,,,,,-0.004817132838070393,-0.00487189507111907,-2.8158576488494873,3.169165849685669,,,,,,,,
1771017288.645639,ATTITUDE,,,,,,,,,0.005655983462929726,0.01013378705829382,-2.0508711338043213,3.315589666366577,,,,,,,,
1771017288.8322282,BATTERY_STATUS,11.468,4.86,61,,,,,,,,,,,,,,,,,
1771017288.908409,ATTITUDE,,,,,,,,,7.631581684108824e-05,-0.00027626307564787567,-1.2867257595062256,3.362908363342285,,,,,,,,
1771017289.1176696,ATTITUDE,,,,,,,,,0.0029926556162536144,0.005759002175182104,-0.5054810047149658,3.5192081928253174,,,,,,,,
1771017289.3743455,ATTITUDE,,,,,,,,,-0.0007646295707672834,2.089476583932992e-05,0.3024146854877472,3.4642295837402344,,,,,,,,
1771017289.5541224,ATTITUDE,,,,,,,,,0.0028823348693549633,0.00427227932959795,1.0973130464553833,3.415107250213623,,,,,,,,
1771017289.8620868,ATTITUDE,,,,,,,,,-0.0006588965188711882,0.0009250101866200566,1.9424184560775757,3.516641855239868,,,,,,,,
1771017290.049731,ATTITUDE,,,,,,,,,0.003654314437881112,0.0022804958280175924,2.7477774620056152,3.5685486793518066,,,,,,,,
1771017290.281605,ATTITUDE,,,,,,,,,-0.0032401352655142546,0.0010955471079796553,-2.70971941947937,3.555889368057251,,,,,,,,
1771017290.5022488,ATTITUDE,,,,,,,,,0.0029191996436566114,0.002695925533771515,-1.8989531993865967,3.562434434890747,,,,,,,,
1771017290.7771747,ATTITUDE,,,,,,,,,-0.001293869805522263,-8.141597209032625e-05,-1.0609040260314941,3.627070426940918,,,,,,,,
1771017290.9567487,ATTITUDE,,,,,,,,,0.001877973903901875,0.000386425614124164,-0.20416134595870972,3.621384382247925,,,,,,,,
1771017291.2187245,ATTITUDE,,,,,,,,,-0.0016017371090129018,0.0017232897225767374,0.6365011930465698,3.5715560913085938,,,,,,,,
1771017291.4243054,ATTITUDE,,,,,,,,,-0.0005045021534897387,5.3671195928473026e-05,1.4582772254943848,3.6311464309692383,,,,,,,,
1771017291.6799753,ATTITUDE,,,,,,,,,0.00019856158178299665,0.002044001594185829,2.299419403076172,3.5830273628234863,,,,,,,,
1771017291.9516008,ALTITUDE,,,,,,,,597.8776245117188,,,,,,,,,,,,
1771017291.9636054,ATTITUDE,,,,,,,,,0.0014292942360043526,-0.0006182618089951575,3.1177051067352295,3.566608428955078,,,,,,,,
1771017291.9996035,LOCAL_POSITION_NED,,,,,,,,,,,,,,13.293359756469727,2.009678602218628,1.2296780347824097,,,,
1771017292.0546038,SERVO_OUTPUT_RAW,,,,109,1483,1607,221,,,,,,,,,,,,,
1771017292.1465998,ATTITUDE,,,,,,,,,-0.002289710333570838,0.004328250419348478,-2.3033699989318848,3.5639171600341797,,,,,,,,
1771017292.378484,ATTITUDE,,,,,,,,,-0.007908466272056103,-0.0063093663193285465,-1.4953994750976562,3.722200632095337,,,,,,,,
1771017292.6166954,ATTITUDE,,,,,,,,,0.0014189035864546895,0.0019004136556759477,-0.7743401527404785,2.575455904006958,,,,,,,,
1771017292.8282752,ATTITUDE,,,,,,,,,0.010853576473891735,-0.004231587518006563,-0.28607383370399475,1.5587865114212036,,,,,,,,
1771017293.0438197,ATTITUDE,,,,,,,,,0.01154909748584032,-0.008619597181677818,-0.02961139753460884,0.7350558042526245,,,,,,,,
1771017293.3294625,ATTITUDE,,,,,,,,,0.01583714410662651,-0.009485147893428802,0.021941211074590683,-0.058868903666734695,,,,,,,,
1771017294.3332295,ATTITUDE,,,,,,,,,0.019287599250674248,-0.007330079097300768,0.018798204138875008,-0.0012402355205267668,,,,,,,,
1771017294.5692208,ATTITUDE,,,,,,,,,0.019521737471222878,-0.007275633048266172,0.018714575096964836,-0.002649044618010521,,,,,,,,
1771017294.8403542,ATTITUDE,,,,,,,,,0.019789671525359154,-0.007218881510198116,0.01861432008445263,-0.0017551158089190722,,,,,,,,
1771017294.9948745,ATTITUDE,,,,,,,,,0.02000340074300766,-0.0071747880429029465,0.018556561321020126,-0.0014605934266000986,,,,,,,,
1771017295.2805164,ATTITUDE,,,,,,,,,0.02026301436126232,-0.00713956356048584,0.018505770713090897,-0.001592847052961588,,,,,,,,
1771017295.4609675,ATTITUDE,,,,,,,,,0.02045089565217495,-0.007043313700705767,0.018525101244449615,0.0017058956436812878,,,,,,,,
1771017295.7290714,ATTITUDE,,,,,,,,,0.020668478682637215,-0.006988257635384798,0.01845589280128479,0.0009429164929315448,,,,,,,,
1771017295.9606524,ATTITUDE,,,,,,,,,0.021004917100071907,-0.0069821663200855255,0.018330059945583344,-0.00024191627744585276,,,,,,,,
1771017296.180794,ALTITUDE,,,,,,,,598.025634765625,,,,,,,,,,,,
1771017296.2682984,LOCAL_POSITION_NED,,,,,,,,,,,,,,15.646689414978027,2.6320199966430664,0.8897186517715454,,,,
1771017296.2923,SERVO_OUTPUT_RAW,,,,0,0,0,0,,,,,,,,,,,,,
1771017296.334301,ATTITUDE,,,,,,,,,0.02123359777033329,-0.00696055730804801,0.018226411193609238,-0.0008269190439023077,,,,,,,,
1771017296.4288235,ATTITUDE,,,,,,,,,0.021485576406121254,-0.006905633490532637,0.018173737451434135,-0.00027905573369935155,,,,,,,,
1771017296.5568757,BATTERY_STATUS,11.835,0.0,70,,,,,,,,,,,,,,,,,
1771017296.6323996,ATTITUDE,,,,,,,,,0.02176387421786785,-0.0068414583802223206,0.018098777160048485,-0.0007838665624149144,,,,,,,,
1771017296.9000888,ATTITUDE,,,,,,,,,0.0218858290463686,-0.006848840042948723,0.018076235428452492,0.0006612109718844295,,,,,,,,
1771017297.057084,ATTITUDE,,,,,,,,,0.022043738514184952,-0.0068196398206055164,0.01806212030351162,-0.0007247620960697532,,,,,,,,
1771017297.3411548,ATTITUDE,,,,,,,,,0.021853957325220108,-0.0065550729632377625,0.018109453842043877,0.0006896575796417892,,,,,,,,
1771017297.5782666,ATTITUDE,,,,,,,,,0.021124377846717834,-0.006060128100216389,0.01813330687582493,-0.0012549667153507471,,,,,,,,
1771017297.8068361,ATTITUDE,,,,,,,,,0.019706375896930695,-0.005420798901468515,0.01819765381515026,0.0012963071931153536,,,,,,,,
1771017297.998411,ATTITUDE,,,,,,,,,0.018302373588085175,-0.004740343429148197,0.018286162987351418,-0.0010343247558921576,,,,,,,,
1771017298.2726674,ATTITUDE,,,,,,,,,0.017294416204094887,-0.0043364400044083595,0.018486788496375084,0.0009112862171605229,,,,,,,,
1771017298.4942455,ATTITUDE,,,,,,,,,0.0167892687022686,-0.004140742123126984,0.0186629518866539,-0.0005146891926415265,,,,,,,,
1771017298.7323525,ATTITUDE,,,,,,,,,0.016597682610154152,-0.003988878335803747,0.018972769379615784,-0.0002581459702923894,,,,,,,,
1771017298.9951146,ATTITUDE,,,,,,,,,0.01656476780772209,-0.0039003328420221806,0.019238293170928955,-0.0004469219711609185,,,,,,,,
1771017299.1983047,ATTITUDE,,,,,,,,,0.0166501272469759,-0.0038212414365261793,0.019584596157073975,-0.0012160257901996374,,,,,,,,
1771017299.4086711,ATTITUDE,,,,,,,,,0.016666114330291748,-0.003762506879866123,0.020005803555250168,0.0004467791295610368,,,,,,,,
1771017299.7328403,ALTITUDE,,,,,,,,598.0441284179688,,,,,,,,,,,,
1771017299.744843,ATTITUDE,,,,,,,,,0.016672667115926743,-0.003712801495566964,0.020460624247789383,-0.0002488871687091887,,,,,,,,
1771017299.7818418,LOCAL_POSITION_NED,,,,,,,,,,,,,,15.757994651794434,2.6728663444519043,0.8922873735427856,,,,
1771017299.8118408,SERVO_OUTPUT_RAW,,,,0,0,0,0,,,,,,,,,,,,,
1771017299.9019282,ATTITUDE,,,,,,,,,0.016685012727975845,-0.0036958158016204834,0.020916162058711052,0.001514789997600019,,,,,,,,
1771017300.136672,ATTITUDE,,,,,,,,,0.016682717949151993,-0.003661207389086485,0.021332595497369766,0.0007203221321105957,,,,,,,,
1771017300.3685787,ATTITUDE,,,,,,,,,0.016737496480345726,-0.003666842123493552,0.021761856973171234,0.0005143366288393736,,,,,,,,
1771017300.575103,ATTITUDE,,,,,,,,,0.016827521845698357,-0.0036556811537593603,0.022112827748060226,0.00041903427336364985,,,,,,,,
1771017300.8182144,ATTITUDE,,,,,,,,,0.016869109123945236,-0.003658668138086796,0.022526655346155167,0.00023806819808669388,,,,,,,,
1771017301.080319,ATTITUDE,,,,,,,,,0.016913674771785736,-0.003605183679610491,0.02297719568014145,6.708560977131128e-05,,,,,,,,
1771017301.2968569,ATTITUDE,,,,,,,,,0.016971535980701447,-0.003605828620493412,0.023316465318202972,-0.0033850010950118303,,,,,,,,
1771017301.5291216,ATTITUDE,,,,,,,,,0.016952136531472206,-0.003676930209621787,0.023660145699977875,-0.0001797610311768949,,,,,,,,
1771017301.7482524,ATTITUDE,,,,,,,,,0.016921820119023323,-0.0036205395590513945,0.02400200627744198,-0.000433121167588979,,,,,,,,
1771017302.0008228,ATTITUDE,,,,,,,,,0.016927747055888176,-0.0036472040228545666,0.02420719526708126,2.5291170459240675e-05,,,,,,,,
1771017302.184407,ATTITUDE,,,,,,,,,0.01687634363770485,-0.003599588293582201,0.024285191670060158,0.0016349914949387312,,,,,,,,
1771017302.4690228,ATTITUDE,,,,,,,,,0.016803201287984848,-0.003569464897736907,0.02435452863574028,-0.00010433729039505124,,,,,,,,
1771017302.6726003,ATTITUDE,,,,,,,,,0.01685149222612381,-0.003547478700056672,0.0245231743901968,0.0006039155996404588,,,,,,,,
1771017302.9001925,ATTITUDE,,,,,,,,,0.016819624230265617,-0.003464624285697937,0.024686021730303764,0.00046592860599048436,,,,,,,,
1771017303.1788278,ALTITUDE,,,,,,,,597.6583251953125,,,,,,,,,,,,
1771017303.2028275,LOCAL_POSITION_NED,,,,,,,,,,,,,,15.767647743225098,2.677884578704834,0.8355711698532104,,,,
1771017303.2268329,SERVO_OUTPUT_RAW,,,,0,0,0,0,,,,,,,,,,,,,
1771017303.268827,ATTITUDE,,,,,,,,,0.016846487298607826,-0.0034562433138489723,0.024724416434764862,-0.00039575580740347505,,,,,,,,
1771017303.316827,ATTITUDE,,,,,,,,,0.01686199940741062,-0.0034505953080952168,0.0248205978423357,-0.0005486739682964981,,,,,,,,
1771017303.5580978,BATTERY_STATUS,11.877,0.0,73,,,,,,,,,,,,,,,,,
1771017303.5814912,ATTITUDE,,,,,,,,,0.016961906105279922,-0.0034236391074955463,0.024839922785758972,0.0003026439226232469,,,,,,,,
1771017303.8432178,ATTITUDE,,,,,,,,,0.017091616988182068,-0.003455251222476363,0.02475851960480213,-0.0002229272504337132,,,,,,,,
1771017304.0477872,ATTITUDE,,,,,,,,,0.01718001253902912,-0.0034036862198263407,0.024726374074816704,-0.001590001629665494,,,,,,,,
1771017304.2838924,ATTITUDE,,,,,,,,,0.0173856932669878,-0.0033540462609380484,0.024690918624401093,-0.00018138298764824867,,,,,,,,
1771017304.5160887,ATTITUDE,,,,,,,,,0.01753975823521614,-0.003327196929603815,0.02470390684902668,-0.0004407932865433395,,,,,,,,
1771017304.73167,VIBRATION,,,,,,,,,,,,,,,,,4.785102522553153e-11,0.002605168614536524,0.028645463287830353,
1771017304.7436733,ATTITUDE,,,,,,,,,0.017694802954792976,-0.003318757051602006,0.02465471439063549,-0.0011671495158225298,,,,,,,,
1771017305.017677,ATTITUDE,,,,,,,,,0.01784556545317173,-0.003271797439083457,0.024587195366621017,0.0006382964202202857,,,,,,,,
1771017305.2407796,ATTITUDE,,,,,,,,,0.01797379180788994,-0.003161008469760418,0.0244495440274477,0.0009142773924395442,,,,,,,,
1771017305.4623494,ATTITUDE,,,,,,,,,0.01808418706059456,-0.003177117556333542,0.024341505020856857,-0.0011989579070359468,,,,,,,,
1771017305.6946647,ATTITUDE,,,,,,,,,0.018174374476075172,-0.0031441282480955124,0.02423669584095478,-0.0003962029586546123,,,,,,,,
1771017305.9687552,ATTITUDE,,,,,,,,,0.018236108124256134,-0.003035944188013673,0.02411617711186409,-0.0019530670251697302,,,,,,,,
1771017306.1147954,ATTITUDE,,,,,,,,,0.018198363482952118,-0.003063600743189454,0.0238281711935997,-0.000739636889193207,,,,,,,,
1771017306.37488,ATTITUDE,,,,,,,,,0.0183352530002594,-0.0030094950925558805,0.02354823425412178,0.0007024157675914466,,,,,,,,
1771017306.6525202,ALTITUDE,,,,,,,,597.634521484375,,,,,,,,,,,,
1771017306.676518,LOCAL_POSITION_NED,,,,,,,,,,,,,,15.769371032714844,2.6843278408050537,0.7742186188697815,,,,
1771017306.7005215,SERVO_OUTPUT_RAW,,,,0,0,0,0,,,,,,,,,,,,,
1771017306.742515,ATTITUDE,,,,,,,,,0.021230649203062057,0.002047901740297675,0.022069772705435753,-0.03564641252160072,,,,,,,,
1771017306.8540502,ATTITUDE,,,,,,,,,0.027915235608816147,0.018058381974697113,-0.07427617907524109,-0.845265805721283,,,,,,,,
1771017307.1041477,ATTITUDE,,,,,,,,,0.0055766901932656765,-0.046291377395391464,-0.2467036247253418,-0.4582165777683258,,,,,,,,
1771017307.342218,ATTITUDE,,,,,,,,,-0.04114113748073578,-0.05832313373684883,-0.3166086673736572,-0.3943580985069275,,,,,,,,
1771017307.5467892,ATTITUDE,,,,,,,,,-0.024544712156057358,0.029372094199061394,-0.4002399444580078,-0.1589575856924057,,,,,,,,
1771017307.7849298,ATTITUDE,,,,,,,,,0.020967988297343254,0.03654133901000023,-0.4185686707496643,0.045590534806251526,,,,,,,,
1771017307.9883037,ATTITUDE,,,,,,,,,0.021657532081007957,0.02068202942609787,-0.4136591851711273,-0.06502231955528259,,,,,,,,
1771017308.2570486,ATTITUDE,,,,,,,,,0.004289856180548668,0.004443766549229622,-0.42881283164024353,0.024736866354942322,,,,,,,,
1771017308.4426215,ATTITUDE,,,,,,,,,0.004081765189766884,0.0005090019549243152,-0.4270246922969818,0.001554392627440393,,,,,,,,
1771017308.7676523,ATTITUDE,,,,,,,,,0.004486409015953541,0.0006829058402217925,-0.4271800220012665,-0.00039168819785118103,,,,,,,,
1771017308.9557376,ATTITUDE,,,,,,,,,0.004607334733009338,0.0007675776723772287,-0.427308052778244,-0.0003264064434915781,,,,,,,,
1771017309.1353106,ATTITUDE,,,,,,,,,0.004938895348459482,0.000761000846978277,-0.42736536264419556,0.0011562355794012547,,,,,,,,
1771017309.420026,ATTITUDE,,,,,,,,,0.005260038189589977,0.0007812731200829148,-0.4274701476097107,0.002713335445150733,,,,,,,,
1771017309.6821587,ATTITUDE,,,,,,,,,0.005649010185152292,0.0008124348241835833,-0.4274727404117584,0.0018336103530600667,,,,,,,,
1771017309.8532348,ATTITUDE,,,,,,,,,0.005796951241791248,0.0008340903441421688,-0.42749449610710144,-0.0017621621955186129,,,,,,,,
1771017310.0853548,ALTITUDE,,,,,,,,597.7984008789062,,,,,,,,,,,,
1771017310.109353,LOCAL_POSITION_NED,,,,,,,,,,,,,,15.753692626953125,3.265120029449463,0.9088389873504639,,,,
1771017310.1393538,SERVO_OUTPUT_RAW,,,,0,0,0,0,,,,,,,,,,,,,
1771017310.1757073,ATTITUDE,,,,,,,,,0.0060309311375021935,0.0008977424004115164,-0.42768728733062744,-0.0005675973370671272,,,,,,,,
1771017310.3331885,ATTITUDE,,,,,,,,,0.006225645076483488,0.0009701180388219655,-0.42769789695739746,-0.0005423746188171208,,,,,,,,
1771017310.4619787,BATTERY_STATUS,11.898,0.0,74,,,,,,,,,,,,,,,,,
1771017310.5371916,ATTITUDE,,,,,,,,,0.011013397946953773,0.0054449886083602905,-0.43402066826820374,0.02078467421233654,,,,,,,,
1771017310.822812,ATTITUDE,,,,,,,,,0.007980533875524998,0.004828258883208036,-0.458006352186203,-0.06339378654956818,,,,,,,,
1771017311.004872,ATTITUDE,,,,,,,,,0.012952074408531189,0.002250544261187315,-0.4358155429363251,0.07145439088344574,,,,,,,,
1771017311.2379808,ATTITUDE,,,,,,,,,0.04311302676796913,-0.009753506630659103,-0.4300459623336792,0.13109421730041504,,,,,,,,
1771017311.4690957,ATTITUDE,,,,,,,,,0.03384103626012802,-0.014758293516933918,-0.33181869983673096,0.5815338492393494,,,,,,,,
1771017311.7429883,ATTITUDE,,,,,,,,,0.023635799065232277,0.00021131629182491452,-0.23753106594085693,-0.07269801944494247,,,,,,,,
1771017311.9475763,ATTITUDE,,,,,,,,,0.02136538363993168,0.004024270921945572,-0.2847707271575928,-0.007334762252867222,,,,,,,,
1771017312.2191985,ATTITUDE,,,,,,,,,0.01802770234644413,0.0029005578253418207,-0.2823459506034851,0.006710817106068134,,,,,,,,
1771017312.386224,ATTITUDE,,,,,,,,,0.017932964488863945,0.004080437123775482,-0.28310489654541016,0.006025602109730244,,,,,,,,
1771017312.6700535,ATTITUDE,,,,,,,,,0.01795591600239277,0.003982923924922943,-0.2831386923789978,-0.004125084728002548,,,,,,,,
1771017312.9191566,ATTITUDE,,,,,,,,,0.018057124689221382,0.0027129773516207933,-0.28309324383735657,-0.007319549098610878,,,,,,,,
1771017313.1473582,ATTITUDE,,,,,,,,,0.01795255020260811,0.002952657639980316,-0.28432497382164,-0.005808129906654358,,,,,,,,
1771017313.3579385,ATTITUDE,,,,,,,,,0.01556932833045721,0.006102235056459904,-0.2871992886066437,-0.05412793159484863,,,,,,,,
1771017313.525531,ALTITUDE,,,,,,,,598.1101684570312,,,,,,,,,,,,
1771017313.6562853,LOCAL_POSITION_NED,,,,,,,,,,,,,,15.803813934326172,3.632748603820801,0.8534478545188904,,,,
1771017313.680282,SERVO_OUTPUT_RAW,,,,0,0,0,0,,,,,,,,,,,,,
1771017313.722282,ATTITUDE,,,,,,,,,-0.006004651542752981,0.021104712039232254,-0.2921487092971802,0.11553913354873657,,,,,,,,
1771017313.8225293,ATTITUDE,,,,,,,,,-0.03017970360815525,0.002390906447544694,-0.28164952993392944,-0.0019951912108808756,,,,,,,,
1771017314.0819397,ATTITUDE,,,,,,,,,0.0017708512023091316,0.0038326655048877,-0.2993292510509491,-0.07395230978727341,,,,,,,,
1771017314.2673662,ATTITUDE,,,,,,,,,-0.002688212553039193,-0.0043501281179487705,-0.29160836338996887,-0.030763456597924232,,,,,,,,
1771017314.5352032,ATTITUDE,,,,,,,,,0.007881551049649715,-0.01923614740371704,-0.3004981577396393,0.02041718177497387,,,,,,,,
1771017314.7214978,ATTITUDE,,,,,,,,,0.01738482154905796,-0.02117241732776165,-0.31173908710479736,-0.012075425125658512,,,,,,,,
1771017314.937304,ATTITUDE,,,,,,,,,0.017672918736934662,-0.029616229236125946,-0.3016580641269684,0.046936679631471634,,,,,,,,
1771017315.2140386,ATTITUDE,,,,,,,,,0.01851935125887394,-0.034762945026159286,-0.2958082854747772,0.037887364625930786,,,,,,,,
1771017315.400629,ATTITUDE,,,,,,,,,0.01867832988500595,-0.028584802523255348,-0.29977092146873474,-0.024291513487696648,,,,,,,,
1771017315.684203,ATTITUDE,,,,,,,,,0.011994099244475365,-0.033941153436899185,-0.28751733899116516,0.012757373042404652,,,,,,,,
1771017315.8541567,ATTITUDE,,,,,,,,,0.017191892489790916,-0.022375768050551414,-0.29291263222694397,-0.07035863399505615,,,,,,,,
1771017316.1528363,ATTITUDE,,,,,,,,,0.009532066993415356,-0.021337155252695084,-0.3125137388706207,0.003855371382087469,,,,,,,,
1771017316.3845527,ATTITUDE,,,,,,,,,-0.0026282959152013063,-0.03839745372533798,-0.29449814558029175,0.0679221823811531,,,,,,,,
1771017316.5985372,ATTITUDE,,,,,,,,,-0.001194709911942482,-0.02847946062684059,-0.2884555757045746,-0.18342310190200806,,,,,,,,
1771017316.8040342,ATTITUDE,,,,,,,,,0.004082470200955868,-0.02880307286977768,-0.29029807448387146,0.20879490673542023,,,,,,,,
1771017317.1002204,ALTITUDE,,,,,,,,598.2501831054688,,,,,,,,,,,,
1771017317.1242237,LOCAL_POSITION_NED,,,,,,,,,,,,,,15.921895027160645,5.157221794128418,0.4623197615146637,,,,
1771017317.1542218,SERVO_OUTPUT_RAW,,,,120,297,109,285,,,,,,,,,,,,,
1771017317.190219,ATTITUDE,,,,,,,,,0.01631062477827072,-0.022875823080539703,-0.2866697609424591,-0.06408639252185822,,,,,,,,
1771017317.290271,ATTITUDE,,,,,,,,,0.008240369148552418,-0.017326941713690758,-0.2848150432109833,0.05546049401164055,,,,,,,,
1771017317.4701467,BATTERY_STATUS,11.884,0.0,73,,,,,,,,,,,,,,,,,
1771017317.5462735,ATTITUDE,,,,,,,,,0.015816038474440575,-0.011372224427759647,-0.2788141071796417,0.0732109546661377,,,,,,,,
1771017317.7318597,ATTITUDE,,,,,,,,,0.022794457152485847,-0.010883490554988384,-0.28364333510398865,-0.04880339652299881,,,,,,,,
1771017317.971332,ATTITUDE,,,,,,,,,0.01731903851032257,-0.014351535588502884,-0.2888774573802948,0.0036216843873262405,,,,,,,,
1771017318.2094529,ATTITUDE,,,,,,,,,0.010406036861240864,-0.01503776852041483,-0.26629191637039185,0.04479779303073883,,,,,,,,
1771017318.493582,ATTITUDE,,,,,,,,,0.012431207112967968,-0.013944759033620358,-0.2536621689796448,0.05929598957300186,,,,,,,,
1771017318.6572888,ATTITUDE,,,,,,,,,0.014518669806420803,-0.0043029747903347015,-0.24055159091949463,-0.01949303038418293,,,,,,,,
1771017318.9070868,ATTITUDE,,,,,,,,,0.014295319095253944,-0.011991016566753387,-0.27973878383636475,-0.39936918020248413,,,,,,,,
1771017319.3867073,ATTITUDE,,,,,,,,,0.01170998066663742,-0.015184517949819565,-0.34491628408432007,0.5230019688606262,,,,,,,,
1771017319.618413,ATTITUDE,,,,,,,,,0.013548560440540314,0.0031506200321018696,-0.21022002398967743,0.6541764140129089,,,,,,,,
1771017319.872192,ATTITUDE,,,,,,,,,0.009008077904582024,-0.011392232030630112,-0.1219218373298645,0.41270187497138977,,,,,,,,
1771017320.0879397,ATTITUDE,,,,,,,,,0.010900760069489479,-0.003131199162453413,-0.041305530816316605,0.005195815581828356,,,,,,,,
1771017320.3460796,ATTITUDE,,,,,,,,,0.015556531958281994,0.008244631811976433,-0.06479243189096451,-0.06899761408567429,,,,,,,,
1771017320.6217196,ALTITUDE,,,,,,,,598.2977905273438,,,,,,,,,,,,
1771017320.6457193,LOCAL_POSITION_NED,,,,,,,,,,,,,,16.423349380493164,7.9949846267700195,0.10213873535394669,,,,
1771017320.6697187,SERVO_OUTPUT_RAW,,,,189,287,185,303,,,,,,,,,,,,,
1771017320.7117176,ATTITUDE,,,,,,,,,0.018295392394065857,-0.007318128366023302,-0.06395896524190903,-0.15038542449474335,,,,,,,,
1771017320.8112447,ATTITUDE,,,,,,,,,0.010463870130479336,0.010373533703386784,-0.06078124791383743,0.2225860357284546,,,,,,,,
1771017321.0214484,ATTITUDE,,,,,,,,,0.0048535773530602455,0.003071768907830119,-0.0038067325949668884,0.18395259976387024,,,,,,,,
1771017321.20106,ATTITUDE,,,,,,,,,-0.00577615387737751,0.008142735809087753,0.009367609396576881,-0.11195161193609238,,,,,,,,
1771017321.4643908,ATTITUDE,,,,,,,,,0.0010629225289449096,-0.010517017915844917,-0.08598857372999191,-0.6275160908699036,,,,,,,,
1771017321.7021453,ATTITUDE,,,,,,,,,0.010047739371657372,-0.01344089675694704,-0.14791618287563324,-0.09864705055952072,,,,,,,,
1771017321.9460373,ATTITUDE,,,,,,,,,0.021629393100738525,-0.002206010278314352,-0.1412142813205719,0.08780635893344879,,,,,,,,
1771017322.1286585,ATTITUDE,,,,,,,,,0.01646600104868412,-0.006565471645444632,-0.10750097036361694,0.2627251148223877,,,,,,,,
1771017322.418325,ATTITUDE,,,,,,,,,0.00832910742610693,-0.009566780179738998,-0.05542268604040146,0.09359648078680038,,,,,,,,
1771017322.6379852,ATTITUDE,,,,,,,,,0.011642803438007832,-0.016245348379015923,-0.11464829742908478,-0.5801782011985779,,,,,,,,
1771017322.8723207,ATTITUDE,,,,,,,,,0.018180299550294876,-0.01617409475147724,-0.2391238957643509,-0.551946759223938,,,,,,,,
1771017323.06463,ATTITUDE,,,,,,,,,0.009913012385368347,-0.01063573732972145,-0.3733269274234772,-0.4573444426059723,,,,,,,,
1771017323.3479278,ATTITUDE,,,,,,,,,0.012897978536784649,0.0026303622871637344,-0.4994875192642212,-0.8677535057067871,,,,,,,,
1771017323.5524752,ATTITUDE,,,,,,,,,0.03870692849159241,-0.014441452920436859,-0.7510093450546265,-1.4238700866699219,,,,,,,,
1771017323.8180156,ATTITUDE,,,,,,,,,0.025233911350369453,-0.0029773544520139694,-1.1825942993164062,-2.0851407051086426,,,,,,,,
1771017324.0163453,ALTITUDE,,,,,,,,598.3268432617188,,,,,,,,,,,,
1771017324.0523438,LOCAL_POSITION_NED,,,,,,,,,,,,,,17.221303939819336,12.738694190979004,0.23963682353496552,,,,
1771017324.0823464,SERVO_OUTPUT_RAW,,,,325,238,109,293,,,,,,,,,,,,,
1771017324.1183467,ATTITUDE,,,,,,,,,0.032947808504104614,-0.0030108033679425716,-1.7180547714233398,-2.340574264526367,,,,,,,,
1771017324.2644372,ATTITUDE,,,,,,,,,0.015109687112271786,-0.0018600011244416237,-2.0969419479370117,-0.9880576729774475,,,,,,,,
1771017324.3945024,BATTERY_STATUS,11.868,0.0,73,,,,,,,,,,,,,,,,,
1771017324.4710605,ATTITUDE,,,,,,,,,-0.013497764244675636,-0.0027321663219481707,-2.236637592315674,-0.3944978713989258,,,,,,,,
1771017324.7540514,ATTITUDE,,,,,,,,,-0.012489638291299343,-0.0076863751746714115,-2.276394844055176,0.09469489008188248,,,,,,,,
1771017324.9301174,ATTITUDE,,,,,,,,,-0.016274435445666313,0.013362218625843525,-2.192370653152466,0.6119510531425476,,,,,,,,
1771017325.1780295,ATTITUDE,,,,,,,,,-0.025390297174453735,0.020220881327986717,-2.136530876159668,0.07385953515768051,,,,,,,,
1771017325.4110153,ATTITUDE,,,,,,,,,-0.027030641213059425,0.020345650613307953,-2.089665412902832,0.2879747450351715,,,,,,,,
1771017325.679179,ATTITUDE,,,,,,,,,-0.04933289438486099,0.009983004070818424,-2.017801284790039,0.13170738518238068,,,,,,,,
1771017325.8713915,ATTITUDE,,,,,,,,,-0.06453271210193634,-0.012054359540343285,-2.0828702449798584,-0.05604013055562973,,,,,,,,
1771017326.1601448,ATTITUDE,,,,,,,,,-0.04464750736951828,0.01687619648873806,-2.046104907989502,-0.19830994307994843,,,,,,,,
1771017326.3301783,ATTITUDE,,,,,,,,,-0.03294974938035011,0.01685185544192791,-2.083150863647461,0.014452114701271057,,,,,,,,
1771017326.615382,ATTITUDE,,,,,,,,,-0.024862034246325493,0.014425024390220642,-2.1013383865356445,0.020754875615239143,,,,,,,,
1771017326.8011746,ATTITUDE,,,,,,,,,-0.017785117030143738,0.012514478527009487,-2.090578079223633,0.020741697400808334,,,,,,,,
1771017327.0367603,ATTITUDE,,,,,,,,,-0.02505856566131115,0.025617171078920364,-2.101050853729248,-0.156042218208313,,,,,,,,
1771017327.2462564,ATTITUDE,,,,,,,,,-0.021324574947357178,0.02730029821395874,-2.1231327056884766,0.06600920110940933,,,,,,,,
1771017327.469067,ALTITUDE,,,,,,,,598.6703491210938,,,,,,,,,,,,
1771017327.558603,LOCAL_POSITION_NED,,,,,,,,,,,,,,18.240760803222656,18.941083908081055,0.27988091111183167,,,,
1771017327.5826,SERVO_OUTPUT_RAW,,,,336,128,345,156,,,,,,,,,,,,,
1771017327.618602,ATTITUDE,,,,,,,,,-0.01647307351231575,0.0164027139544487,-2.116781234741211,-0.06414053589105606,,,,,,,,
1771017327.712131,ATTITUDE,,,,,,,,,-0.023997964337468147,0.008706841617822647,-2.122676134109497,-0.04268154129385948,,,,,,,,
1771017328.0198445,ATTITUDE,,,,,,,,,-0.02740212343633175,0.016200266778469086,-2.1295032501220703,-0.052624981850385666,,,,,,,,
1771017328.2124734,ATTITUDE,,,,,,,,,-0.029740117490291595,0.03227154165506363,-2.1219911575317383,0.08428803086280823,,,,,,,,
1771017328.4161403,ATTITUDE,,,,,,,,,-0.00991867296397686,0.0035285064950585365,-2.1203033924102783,-0.06078992784023285,,,,,,,,
1771017328.648254,ATTITUDE,,,,,,,,,-0.014167535118758678,0.014410819858312607,-2.124324321746826,-0.10785286873579025,,,,,,,,
1771017328.898686,ATTITUDE,,,,,,,,,-0.01350706908851862,0.008330341428518295,-2.1343183517456055,0.029835959896445274,,,,,,,,
1771017329.1262598,ATTITUDE,,,,,,,,,-0.016563285142183304,-0.017028434202075005,-2.148228645324707,-0.010489136911928654,,,,,,,,
1771017329.3586204,ATTITUDE,,,,,,,,,-0.026518037542700768,0.02347315289080143,-2.124791145324707,-0.09550739079713821,,,,,,,,
1771017329.5846384,ATTITUDE,,,,,,,,,0.008937780745327473,0.012619364075362682,-2.111978054046631,0.030956005677580833,,,,,,,,
1771017329.8018646,ATTITUDE,,,,,,,,,-0.016679340973496437,-0.009136741980910301,-2.1559324264526367,-0.12296893447637558,,,,,,,,
1771017330.0643573,ATTITUDE,,,,,,,,,-0.021769098937511444,0.006409181747585535,-2.153313636779785,0.2738450765609741,,,,,,,,
1771017330.296535,ATTITUDE,,,,,,,,,-0.01695816032588482,0.003766249865293503,-2.1354331970214844,0.10079272836446762,,,,,,,,
1771017330.5006006,ATTITUDE,,,,,,,,,-0.023942138999700546,0.0062727187760174274,-2.1022706031799316,0.11906348168849945,,,,,,,,
1771017330.7567089,ATTITUDE,,,,,,,,,-0.0019831019453704357,-0.0033801505342125893,-2.1072564125061035,-0.13636741042137146,,,,,,,,
1771017331.0460744,ALTITUDE,,,,,,,,598.7337646484375,,,,,,,,,,,,
1771017331.0580764,ATTITUDE,,,,,,,,,-0.0013067855034023523,0.017679458484053612,-2.1356897354125977,-0.31712979078292847,,,,,,,,
1771017331.0950367,LOCAL_POSITION_NED,,,,,,,,,,,,,,19.777997970581055,26.441282272338867,0.4360904097557068,,,,
1771017331.1250353,SERVO_OUTPUT_RAW,,,,209,189,116,450,,,,,,,,,,,,,
1771017331.1970372,ATTITUDE,,,,,,,,,-0.0073184906505048275,0.0023299262393265963,-2.2232563495635986,-0.4511934518814087,,,,,,,,
1771017331.383757,BATTERY_STATUS,11.869,0.0,72,,,,,,,,,,,,,,,,,
1771017331.4652846,ATTITUDE,,,,,,,,,0.019529663026332855,0.006003308109939098,-2.320028305053711,-0.41968342661857605,,,,,,,,
1771017331.6976447,ATTITUDE,,,,,,,,,-0.0008126541506499052,0.00559646962210536,-2.4469034671783447,-0.6333621740341187,,,,,,,,
1771017331.933978,ATTITUDE,,,,,,,,,0.024294497445225716,0.01623326912522316,-2.63327956199646,-0.8144774436950684,,,,,,,,
1771017332.1265612,ATTITUDE,,,,,,,,,0.00828409381210804,-6.322534318314865e-05,-2.7897253036499023,-0.7751726508140564,,,,,,,,
1771017332.4100044,ATTITUDE,,,,,,,,,-0.0023402879014611244,-0.001932854880578816,-3.0245370864868164,-1.0527524948120117,,,,,,,,
1771017332.5866725,ATTITUDE,,,,,,,,,-0.0028058914467692375,-0.00824559386819601,3.021029233932495,-1.0616265535354614,,,,,,,,
1771017332.8887045,ATTITUDE,,,,,,,,,-0.016389384865760803,-0.023708555847406387,2.8182976245880127,-0.7041605710983276,,,,,,,,
1771017333.0686631,ATTITUDE,,,,,,,,,-0.029608840122818947,-0.0182843878865242,2.717991590499878,-0.14581707119941711,,,,,,,,
1771017333.2903342,ATTITUDE,,,,,,,,,-0.01587761752307415,-0.03649165481328964,2.695234537124634,-0.15937596559524536,,,,,,,,
1771017333.5224297,ATTITUDE,,,,,,,,,-0.027518535032868385,-0.04396171495318413,2.69354510307312,0.1512901782989502,,,,,,,,
1771017333.7605507,ATTITUDE,,,,,,,,,0.006395694799721241,-0.03997793048620224,2.6698403358459473,-0.18784035742282867,,,,,,,,
1771017333.9761083,ATTITUDE,,,,,,,,,0.007075462955981493,-0.02551954984664917,2.64741849899292,-0.0031833420507609844,,,,,,,,
1771017334.1979063,ATTITUDE,,,,,,,,,-0.008629247546195984,-0.030561523512005806,2.6182074546813965,-0.06363359093666077,,,,,,,,
1771017334.5219204,ALTITUDE,,,,,,,,598.0361938476562,,,,,,,,,,,,
1771017334.5579174,LOCAL_POSITION_NED,,,,,,,,,,,,,,21.80059051513672,34.22193908691406,0.7250151038169861,,,,
1771017334.5819197,SERVO_OUTPUT_RAW,,,,109,152,388,431,,,,,,,,,,,,,
1771017334.6245537,ATTITUDE,,,,,,,,,-0.023998171091079712,-0.031783346086740494,2.6576385498046875,0.43629077076911926,,,,,,,,
1771017334.660553,ATTITUDE,,,,,,,,,-0.021134212613105774,-0.02452601119875908,2.6612861156463623,-0.09640803933143616,,,,,,,,
1771017334.915841,ATTITUDE,,,,,,,,,-0.009163620881736279,-0.03252042084932327,2.6607413291931152,-0.06512557715177536,,,,,,,,
1771017335.154683,ATTITUDE,,,,,,,,,-0.010339771397411823,-0.0357477106153965,2.6555724143981934,0.08461078256368637,,,,,,,,
1771017335.4105837,ATTITUDE,,,,,,,,,-0.011994902975857258,-0.03802245110273361,2.662802219390869,0.013964283280074596,,,,,,,,
1771017335.5911598,ATTITUDE,,,,,,,,,-0.0020441552624106407,-0.03207669407129288,2.6615824699401855,0.0071272822096943855,,,,,,,,
1771017335.8937743,ATTITUDE,,,,,,,,,0.00696957390755415,-0.03350061550736427,2.6669552326202393,0.07902612537145615,,,,,,,,
1771017336.074815,ATTITUDE,,,,,,,,,-0.006033425219357014,-0.03757747635245323,2.676396608352661,0.046600211411714554,,,,,,,,
1771017336.3110957,ATTITUDE,,,,,,,,,0.0028190803714096546,-0.03918963298201561,2.674516201019287,0.06747377663850784,,,,,,,,
1771017336.531196,ATTITUDE,,,,,,,,,0.004505818244069815,-0.030625730752944946,2.7029266357421875,0.11556833982467651,,,,,,,,
1771017336.7993217,ATTITUDE,,,,,,,,,-0.003436606377363205,-0.033161699771881104,2.7068734169006348,-0.03431656211614609,,,,,,,,
1771017336.9908965,ATTITUDE,,,,,,,,,-0.003907791338860989,-0.027475392445921898,2.703510046005249,-0.04858824610710144,,,,,,,,
1771017337.240895,ATTITUDE,,,,,,,,,-0.0007503138622269034,-0.013250335119664669,2.690424919128418,-0.11045098304748535,,,,,,,,
1771017337.451457,ATTITUDE,,,,,,,,,0.004887654446065426,-0.013242675922811031,2.658862590789795,-0.14350852370262146,,,,,,,,
1771017337.70721,ATTITUDE,,,,,,,,,-0.007031898945569992,-0.021389586851000786,2.58232045173645,-0.41680893301963806,,,,,,,,
1771017337.9908578,ALTITUDE,,,,,,,,597.9463500976562,,,,,,,,,,,,
1771017338.0028582,ATTITUDE,,,,,,,,,-0.0014814580790698528,-0.012718972750008106,2.525512218475342,-0.12848703563213348,,,,,,,,
1771017338.0388582,LOCAL_POSITION_NED,,,,,,,,,,,,,,24.807476043701172,41.54838180541992,0.9057050347328186,,,,
1771017338.0688589,SERVO_OUTPUT_RAW,,,,206,130,179,450,,,,,,,,,,,,,
1771017338.2089102,ATTITUDE,,,,,,,,,-0.011767871677875519,-0.0209208894520998,2.536797046661377,0.17439551651477814,,,,,,,,
1771017338.336967,BATTERY_STATUS,11.862,0.0,72,,,,,,,,,,,,,,,,,
1771017338.4194875,ATTITUDE,,,,,,,,,-0.00340839009732008,-0.030535239726305008,2.536938190460205,-0.1733628213405609,,,,,,,,
1771017338.651513,ATTITUDE,,,,,,,,,0.009127072989940643,-0.020633913576602936,2.55200457572937,0.15352557599544525,,,,,,,,
1771017338.8670955,ATTITUDE,,,,,,,,,0.00273911259137094,-0.007798419799655676,2.557569980621338,0.1622742861509323,,,,,,,,
1771017339.058676,ATTITUDE,,,,,,,,,0.0014604233438149095,-0.006498259492218494,2.564286231994629,-0.10158726572990417,,,,,,,,
1771017339.3556042,ATTITUDE,,,,,,,,,0.0010849240934476256,-0.005951527040451765,2.6008107662200928,-0.006622398737818003,,,,,,,,
1771017339.5070875,VIBRATION,,,,,,,,,,,,,,,,,4.608499750702322e-07,0.29282402992248535,3.8719019889831543,
1771017339.577616,ATTITUDE,,,,,,,,,0.0024163597263395786,0.004738328978419304,2.594395637512207,-0.012265891768038273,,,,,,,,
1771017339.808726,ATTITUDE,,,,,,,,,0.001092754304409027,0.005950353108346462,2.6105284690856934,-0.016573147848248482,,,,,,,,
1771017339.9903047,ATTITUDE,,,,,,,,,-0.004372489172965288,0.002514195628464222,2.6018924713134766,0.003688560798764229,,,,,,,,
1771017340.273474,ATTITUDE,,,,,,,,,-0.0014512988273054361,-0.005021813791245222,2.6106109619140625,-0.043406277894973755,,,,,,,,
1771017340.5055678,ATTITUDE,,,,,,,,,-0.0035791946575045586,0.004623678047209978,2.5982799530029297,0.07940714806318283,,,,,,,,
1771017340.736689,ATTITUDE,,,,,,,,,-0.009661955758929253,-0.011423558928072453,2.604966878890991,-0.10280723869800568,,,,,,,,
1771017340.9529624,ATTITUDE,,,,,,,,,-0.008614988997578621,-0.018137864768505096,2.6106162071228027,0.05104584991931915,,,,,,,,
1771017341.1755407,ATTITUDE,,,,,,,,,-0.005558853503316641,-0.03373410180211067,2.6122751235961914,-0.10748684406280518,,,,,,,,
1771017341.3946307,ALTITUDE,,,,,,,,597.9384155273438,,,,,,,,,,,,
1771017341.406632,ATTITUDE,,,,,,,,,-0.009713456965982914,-0.032738979905843735,2.6002886295318604,0.005576963070780039,,,,,,,,
1771017341.4951677,LOCAL_POSITION_NED,,,,,,,,,,,,,,28.318904876708984,49.09721755981445,1.0217474699020386,,,,
1771017341.5194,SERVO_OUTPUT_RAW,,,,123,159,336,427,,,,,,,,,,,,,
1771017341.6435668,ATTITUDE,,,,,,,,,-0.022907620295882225,-0.029840439558029175,2.6376190185546875,0.352607786655426,,,,,,,,
1771017341.841668,ATTITUDE,,,,,,,,,-0.010214170441031456,-0.03156548738479614,2.7013564109802246,0.01187286339700222,,,,,,,,
1771017342.1366317,ATTITUDE,,,,,,,,,-0.02042568102478981,-0.0344514474272728,2.6624467372894287,-0.19008484482765198,,,,,,,,
1771017342.3407924,ATTITUDE,,,,,,,,,-0.0038391982670873404,-0.030210282653570175,2.6213724613189697,-0.0325634703040123,,,,,,,,
1771017342.5798984,ATTITUDE,,,,,,,,,0.0019837773870676756,-0.028141658753156662,2.6320815086364746,0.08818991482257843,,,,,,,,
1771017342.8119128,ATTITUDE,,,,,,,,,-0.011518548242747784,-0.031272418797016144,2.6625399589538574,-0.054691217839717865,,,,,,,,
1771017343.0524812,ATTITUDE,,,,,,,,,-0.006181165110319853,-0.02989938110113144,2.661334753036499,-0.009367224760353565,,,,,,,,
1771017343.2450423,ATTITUDE,,,,,,,,,-0.006729028187692165,-0.027980348095297813,2.658372402191162,-0.03665102273225784,,,,,,,,
1771017343.523211,ATTITUDE,,,,,,,,,-0.005923127755522728,-0.029343971982598305,2.657909631729126,0.025400130078196526,,,,,,,,
1771017343.7452056,ATTITUDE,,,,,,,,,-0.006500369403511286,-0.02973947301506996,2.657087802886963,0.033598389476537704,,,,,,,,
1771017343.9931962,ATTITUDE,,,,,,,,,-0.005538121331483126,-0.029468631371855736,2.6575284004211426,-0.005215256009250879,,,,,,,,
1771017344.1917503,ATTITUDE,,,,,,,,,-0.006106221582740545,-0.030012715607881546,2.6569983959198,-0.027411920949816704,,,,,,,,
1771017344.458846,ATTITUDE,,,,,,,,,-0.006069402676075697,-0.02983798086643219,2.657123565673828,-0.032201483845710754,,,,,,,,
1771017344.6627934,ATTITUDE,,,,,,,,,-0.005652726162225008,-0.030279012396931648,2.6571857929229736,-0.00934223085641861,,,,,,,,
1771017344.8613634,ALTITUDE,,,,,,,,597.7349853515625,,,,,,,,,,,,
1771017344.8853655,LOCAL_POSITION_NED,,,,,,,,,,,,,,32.09148406982422,56.700164794921875,1.2321434020996094,,,,
1771017344.9608798,SERVO_OUTPUT_RAW,,,,0,0,0,0,,,,,,,,,,,,,
1771017344.9968793,ATTITUDE,,,,,,,,,-0.00572261493653059,-0.031827859580516815,2.6573469638824463,0.017593098804354668,,,,,,,,
1771017345.1170573,ATTITUDE,,,,,,,,,-0.007869821041822433,-0.036568548530340195,2.655717372894287,-0.003535348456352949,,,,,,,,
1771017345.303621,BATTERY_STATUS,11.878,0.0,72,,,,,,,,,,,,,,,,,
1771017345.379155,ATTITUDE,,,,,,,,,-0.007371868472546339,-0.03697630763053894,2.6556949615478516,0.0002853369514923543,,,,,,,,
1771017345.6172547,ATTITUDE,,,,,,,,,-0.007291097659617662,-0.037306301295757294,2.655648708343506,-0.0020234547555446625,,,,,,,,
1771017345.8853476,ATTITUDE,,,,,,,,,-0.00722190085798502,-0.037586141377687454,2.65556001663208,0.000613020732998848,,,,,,,,
1771017346.0715024,ATTITUDE,,,,,,,,,-0.007084662094712257,-0.037877604365348816,2.6555123329162598,-2.8705340810120106e-05,,,,,,,,
1771017346.2666621,ATTITUDE,,,,,,,,,-0.006981867365539074,-0.038057465106248856,2.6554033756256104,-0.0014442933024838567,,,,,,,,
1771017346.5477388,ATTITUDE,,,,,,,,,-0.006850014440715313,-0.03823704272508621,2.655235528945923,0.0007554804906249046,,,,,,,,
1771017346.7341578,ATTITUDE,,,,,,,,,-0.006693405564874411,-0.038435060530900955,2.6551778316497803,9.145538206212223e-05,,,,,,,,
1771017347.0177689,ATTITUDE,,,,,,,,,-0.006557601038366556,-0.038646139204502106,2.6550402641296387,0.0013926257379353046,,,,,,,,
1771017347.1998217,ATTITUDE,,,,,,,,,-0.006434767972677946,-0.03882531076669693,2.654888868331909,0.0012694300385192037,,,,,,,,
1771017347.4375727,ATTITUDE,,,,,,,,,-0.0063077835366129875,-0.03900829702615738,2.654722213745117,-0.001025184988975525,,,,,,,,
1771017347.7210896,ATTITUDE,,,,,,,,,-0.006130703259259462,-0.03910820558667183,2.6546247005462646,-0.0011380217038094997,,,,,,,,
1771017347.8967164,ATTITUDE,,,,,,,,,-0.005797588266432285,-0.03918046876788139,2.654451608657837,0.00184353138320148,,,,,,,,
1771017348.1253412,ATTITUDE,,,,,,,,,-0.00549516174942255,-0.03909905254840851,2.6544651985168457,-0.0005446607829071581,,,,,,,,
1771017348.4491575,ALTITUDE,,,,,,,,597.653076171875,,,,,,,,,,,,
1771017348.4731643,LOCAL_POSITION_NED,,,,,,,,,,,,,,35.46455764770508,62.77045822143555,0.9706101417541504,,,,
1771017348.50316,SERVO_OUTPUT_RAW,,,,0,0,0,0,,,,,,,,,,,,,
1771017348.5391595,ATTITUDE,,,,,,,,,-0.005091632250696421,-0.038710564374923706,2.6545250415802,0.0007005984662100673,,,,,,,,
1771017348.593162,ATTITUDE,,,,,,,,,-0.004329908639192581,-0.03760174661874771,2.65463924407959,-0.0006636896287091076,,,,,,,,
1771017348.843289,ATTITUDE,,,,,,,,,-0.0032455907203257084,-0.03567482903599739,2.654819965362549,0.0008038866217248142,,,,,,,,
1771017349.0793962,ATTITUDE,,,,,,,,,-0.0021484526805579662,-0.03376829996705055,2.6549019813537598,-0.0014712001429870725,,,,,,,,
1771017349.2946522,ATTITUDE,,,,,,,,,-0.0011803278466686606,-0.03239879012107849,2.6550378799438477,0.0004443635407369584,,,,,,,,
1771017349.5327163,ATTITUDE,,,,,,,,,-0.0005872936453670263,-0.031843412667512894,2.6553680896759033,-0.0026430117432028055,,,,,,,,
1771017349.8210926,ATTITUDE,,,,,,,,,-8.928380702855065e-05,-0.031565289944410324,2.6558899879455566,0.0008714572759345174,,,,,,,,
1771017350.0031037,ATTITUDE,,,,,,,,,0.0002555319224484265,-0.03140415996313095,2.6565141677856445,-0.0007281798170879483,,,,,,,,
1771017350.2482147,ATTITUDE,,,,,,,,,0.0005878182710148394,-0.0313439667224884,2.6574325561523438,-0.0006384404841810465,,,,,,,,
1771017350.4744394,ATTITUDE,,,,,,,,,0.0008665192872285843,-0.031288426369428635,2.6586713790893555,-0.001583152450621128,,,,,,,,
1771017350.7431014,ATTITUDE,,,,,,,,,0.0011187241179868579,-0.03116016462445259,2.660167932510376,-0.001247655600309372,,,,,,,,
1771017350.9456744,ATTITUDE,,,,,,,,,0.0015141592593863606,-0.028515014797449112,2.6625633239746094,-0.008813521824777126,,,,,,,,
1771017351.1898484,ATTITUDE,,,,,,,,,0.0014761702623218298,-0.028266334906220436,2.6644341945648193,0.035552963614463806,,,,,,,,
1771017351.4000514,ATTITUDE,,,,,,,,,0.0019047128735110164,-0.028217436745762825,2.665048360824585,-0.016164300963282585,,,,,,,,
1771017351.6621654,ATTITUDE,,,,,,,,,0.002199311973527074,-0.02817523293197155,2.664199113845825,-0.0383162759244442,,,,,,,,
1771017351.9000294,ALTITUDE,,,,,,,,597.9225463867188,,,,,,,,,,,,
1771017351.924031,LOCAL_POSITION_NED,,,,,,,,,,,,,,35.41865158081055,62.87504577636719,0.7748423218727112,,,,
1771017351.9480338,SERVO_OUTPUT_RAW,,,,238,385,367,512,,,,,,,,,,,,,
1771017351.9900327,ATTITUDE,,,,,,,,,0.0024410965852439404,-0.026921667158603668,2.6643736362457275,-0.0039002953562885523,,,,,,,,
1771017352.1420803,ATTITUDE,,,,,,,,,0.003719893516972661,-0.017865998670458794,2.665471076965332,0.0021008534822613,,,,,,,,
1771017352.2356021,BATTERY_STATUS,11.798,0.0,72,,,,,,,,,,,,,,,,,
1771017352.3181317,ATTITUDE,,,,,,,,,0.0031673405319452286,-0.016297034919261932,2.6687304973602295,-0.004666000604629517,,,,,,,,
1771017352.5502515,ATTITUDE,,,,,,,,,-0.00026159832486882806,-0.009642613120377064,2.671119213104248,-0.004668283276259899,,,,,,,,
1771017352.8060682,ATTITUDE,,,,,,,,,-0.00030593122937716544,-0.0017413172172382474,2.6823861598968506,0.06499454379081726,,,,,,,,
1771017353.0102274,ATTITUDE,,,,,,,,,-0.0015453739324584603,-0.001347110141068697,2.7091774940490723,0.16835348308086395,,,,,,,,
1771017353.2601185,ATTITUDE,,,,,,,,,-0.0005636438145302236,0.0013697921531274915,2.7551465034484863,0.2883606553077698,,,,,,,,
1771017353.4807122,ATTITUDE,,,,,,,,,0.0011136324610561132,-0.0010730241192504764,2.827414035797119,0.3433223366737366,,,,,,,,
1771017353.7128158,ATTITUDE,,,,,,,,,0.0006438152631744742,0.002961512189358473,2.93216872215271,0.5826705098152161,,,,,,,,
1771017353.9625583,ATTITUDE,,,,,,,,,-0.001829098560847342,0.0019174505723640323,3.0833637714385986,0.7599390745162964,,,,,,,,
1771017354.1851885,ATTITUDE,,,,,,,,,-0.0020662115421146154,0.005469739902764559,-2.9744575023651123,1.1690638065338135,,,,,,,,
1771017354.4193168,ATTITUDE,,,,,,,,,-0.0021277519408613443,0.006499390117824078,-2.6360864639282227,1.8131604194641113,,,,,,,,
1771017354.6509948,ATTITUDE,,,,,,,,,-0.00040300877299159765,0.0035647687036544085,-2.1710212230682373,2.0888423919677734,,,,,,,,
1771017354.8846126,ATTITUDE,,,,,,,,,-0.009431412443518639,0.011337531730532646,-1.6571089029312134,2.408651113510132,,,,,,,,
1771017355.1410232,ATTITUDE,,,,,,,,,0.0032926294952630997,-0.0008168220520019531,-1.0616134405136108,2.496718645095825,,,,,,,,
1771017355.3791418,ALTITUDE,,,,,,,,598.0731811523438,,,,,,,,,,,,
1771017355.403145,LOCAL_POSITION_NED,,,,,,,,,,,,,,35.19649124145508,62.6417236328125,0.8082234859466553,,,,
1771017355.427141,SERVO_OUTPUT_RAW,,,,109,1308,1386,141,,,,,,,,,,,,,
1771017355.469142,ATTITUDE,,,,,,,,,-0.00430354755371809,0.0024718032218515873,-0.498409628868103,2.530017137527466,,,,,,,,
1771017355.5686817,ATTITUDE,,,,,,,,,0.0006823957082815468,0.004668239038437605,0.08486194908618927,2.558600664138794,,,,,,,,
1771017355.8014703,ATTITUDE,,,,,,,,,0.004248003009706736,0.005498318932950497,0.6642153263092041,2.6526339054107666,,,,,,,,
1771017356.0526,ATTITUDE,,,,,,,,,0.0008397906203754246,-0.004915147088468075,1.2736183404922485,2.6891539096832275,,,,,,,,
1771017356.2686033,ATTITUDE,,,,,,,,,0.0009203251102007926,-0.008248145692050457,1.9283429384231567,2.797258138656616,,,,,,,,
1771017356.5014338,ATTITUDE,,,,,,,,,0.0009773399215191603,-0.006376037839800119,2.5910463333129883,2.8796074390411377,,,,,,,,
1771017356.7375734,ATTITUDE,,,,,,,,,0.0007327349740080535,0.001219728379510343,-3.0265445709228516,3.023458957672119,,,,,,,,
1771017356.977723,ATTITUDE,,,,,,,,,-0.0046777138486504555,0.00257582007907331,-2.316309928894043,3.129854440689087,,,,,,,,
1771017357.1713104,ATTITUDE,,,,,,,,,-0.004119351971894503,-0.0022472694981843233,-1.6066079139709473,3.1258580684661865,,,,,,,,
1771017357.4431584,ATTITUDE,,,,,,,,,-0.0019155394984409213,0.004459691699594259,-0.8532642722129822,3.1153626441955566,,,,,,,,
1771017357.6647506,ATTITUDE,,,,,,,,,0.0013704831944778562,0.005017084535211325,-0.14074921607971191,3.119473934173584,,,,,,,,
1771017357.9145496,ATTITUDE,,,,,,,,,-0.0016570467269048095,0.001701352302916348,0.5909475088119507,3.187439203262329,,,,,,,,
1771017358.1526957,ATTITUDE,,,,,,,,,0.0009476724080741405,0.0029598972760140896,1.3336139917373657,3.290229082107544,,,,,,,,
1771017358.3287537,ATTITUDE,,,,,,,,,0.0011686669895425439,-0.0024288780987262726,2.0699758529663086,2.9792897701263428,,,,,,,,
1771017358.590874,ATTITUDE,,,,,,,,,0.0008700549369677901,-0.013825725764036179,2.6802046298980713,2.356942892074585,,,,,,,,
1771017358.810991,ALTITUDE,,,,,,,,597.7984008789062,,,,,,,,,,,,
1771017358.8409958,LOCAL_POSITION_NED,,,,,,,,,,,,,,34.047142028808594,62.02998352050781,1.166712760925293,,,,
1771017358.8649971,SERVO_OUTPUT_RAW,,,,109,643,735,310,,,,,,,,,,,,,
1771017358.900997,ATTITUDE,,,,,,,,,-0.00761037552729249,-0.018729794770479202,3.117288589477539,1.5643035173416138,,,,,,,,
1771017359.0740433,ATTITUDE,,,,,,,,,-0.008710150606930256,-0.01990596204996109,-2.889106512069702,0.8843875527381897,,,,,,,,
1771017359.2201107,BATTERY_STATUS,11.653,11.43,61,,,,,,,,,,,,,,,,,
1771017359.244106,ATTITUDE,,,,,,,,,-0.006649155635386705,-0.01758205145597458,-2.743415355682373,0.4262405335903168,,,,,,,,
1771017359.5281518,ATTITUDE,,,,,,,,,-0.007556045427918434,-0.01241244561970234,-2.6880738735198975,0.16404269635677338,,,,,,,,
1771017359.737566,ATTITUDE,,,,,,,,,-0.0029181228019297123,0.0034577117767184973,-2.681276798248291,0.004110094625502825,,,,,,,,
1771017359.982545,ATTITUDE,,,,,,,,,-0.004255976062268019,0.0017767498502507806,-2.6879403591156006,0.01450594887137413,,,,,,,,
1771017360.237225,ATTITUDE,,,,,,,,,-0.0022965872194617987,0.002532573416829109,-2.681121587753296,0.06645476073026657,,,,,,,,
1771017360.452811,ATTITUDE,,,,,,,,,-0.0013122798409312963,-0.0016725525492802262,-2.671895742416382,0.030648086220026016,,,,,,,,
1771017360.6334097,ATTITUDE,,,,,,,,,0.001422462286427617,0.004956077318638563,-2.6579136848449707,0.07591036707162857,,,,,,,,
1771017360.9180846,ATTITUDE,,,,,,,,,0.0023142530117183924,0.00431801425293088,-2.629690170288086,0.15985755622386932,,,,,,,,
1771017361.1343534,ATTITUDE,,,,,,,,,0.0022251668851822615,0.006894595455378294,-2.594351291656494,0.16817061603069305,,,,,,,,
1771017361.3776577,ATTITUDE,,,,,,,,,0.00029435165924951434,0.0001898455957416445,-2.5615475177764893,0.11868762969970703,,,,,,,,
1771017361.6155276,ATTITUDE,,,,,,,,,-0.0017356097232550383,0.007978050969541073,-2.5514087677001953,-0.07699252665042877,,,,,,,,
1771017361.8436239,ATTITUDE,,,,,,,,,-0.0007338447612710297,0.007323573809117079,-2.5732970237731934,-0.18493324518203735,,,,,,,,
1771017362.0482302,ATTITUDE,,,,,,,,,-0.0009494984988123178,0.007891532965004444,-2.625947952270508,-0.2477409839630127,,,,,,,,
1771017362.392418,ALTITUDE,,,,,,,,598.4008178710938,,,,,,,,,,,,
1771017362.4174213,LOCAL_POSITION_NED,,,,,,,,,,,,,,32.2338981628418,61.16900634765625,1.7077829837799072,,,,
1771017362.4414182,SERVO_OUTPUT_RAW,,,,873,471,488,985,,,,,,,,,,,,,
1771017362.483421,ATTITUDE,,,,,,,,,-0.003189092967659235,0.0015116307185962796,-2.6645424365997314,-0.09597322344779968,,,,,,,,
1771017362.5424178,ATTITUDE,,,,,,,,,-0.002597982995212078,0.0008813773165456951,-2.6568315029144287,0.13603755831718445,,,,,,,,
1771017362.7748883,ATTITUDE,,,,,,,,,8.132018410833552e-05,0.007385876029729843,-2.6114518642425537,0.19602623581886292,,,,,,,,
1771017362.9730313,ATTITUDE,,,,,,,,,0.0034940505865961313,0.0072325789369642735,-2.524777889251709,0.49009189009666443,,,,,,,,
1771017363.2431614,ATTITUDE,,,,,,,,,0.0016935510793700814,0.005659701768308878,-2.3978652954101562,0.6316456198692322,,,,,,,,
1771017363.4267468,ATTITUDE,,,,,,,,,7.398249408652191e-07,0.0038703877944499254,-2.2179436683654785,0.926877498626709,,,,,,,,
1771017363.7630866,ATTITUDE,,,,,,,,,0.0013071123976260424,0.006804678123444319,-1.9601644277572632,1.3267821073532104,,,,,,,,
1771017363.9460907,ATTITUDE,,,,,,,,,0.004757567774504423,0.010167432017624378,-1.5904887914657593,1.8795286417007446,,,,,,,,
1771017364.131779,ATTITUDE,,,,,,,,,0.0016387974610552192,-0.0013138210633769631,-1.1354222297668457,2.1571545600891113,,,,,,,,
1771017364.4164464,ATTITUDE,,,,,,,,,0.003691702149808407,0.005067578051239252,-0.5752678513526917,2.556330919265747,,,,,,,,
1771017364.642013,ATTITUDE,,,,,,,,,0.0018196076853200793,0.007372231688350439,0.018997490406036377,2.754802942276001,,,,,,,,
1771017364.9335554,ATTITUDE,,,,,,,,,0.004374557640403509,-0.00017563973960932344,0.6780706644058228,2.9315950870513916,,,,,,,,
1771017365.1197855,ATTITUDE,,,,,,,,,0.0034105752129107714,-0.003093923209235072,1.3663506507873535,3.019240617752075,,,,,,,,
1771017365.2976706,ATTITUDE,,,,,,,,,0.0006909858784638345,-0.008317563682794571,2.0616300106048584,3.0617077350616455,,,,,,,,
1771017365.5535598,ATTITUDE,,,,,,,,,0.0010013952851295471,0.0018753146287053823,2.8154306411743164,3.1294047832489014,,,,,,,,
1771017365.828739,ALTITUDE,,,,,,,,598.443115234375,,,,,,,,,,,,
1771017365.8587403,LOCAL_POSITION_NED,,,,,,,,,,,,,,30.179428100585938,59.840003967285156,1.6201258897781372,,,,
1771017365.882742,SERVO_OUTPUT_RAW,,,,109,1601,1456,161,,,,,,,,,,,,,
1771017365.9187355,ATTITUDE,,,,,,,,,0.0005203084438107908,0.0012124298373237252,-2.7389988899230957,3.280977964401245,,,,,,,,
1771017365.9847383,ATTITUDE,,,,,,,,,-0.0009559096652083099,-3.2340290090360213e-06,-1.9962652921676636,3.307034492492676,,,,,,,,
1771017366.1652591,BATTERY_STATUS,11.32,7.74,55,,,,,,,,,,,,,,,,,
1771017366.253046,ATTITUDE,,,,,,,,,-0.0005690226098522544,0.0031718434765934944,-1.2314369678497314,3.298535108566284,,,,,,,,
1771017366.4862394,ATTITUDE,,,,,,,,,-0.00634000962600112,0.0037524800281971693,-0.5007039308547974,2.9246904850006104,,,,,,,,
1771017366.7016454,ATTITUDE,,,,,,,,,0.0018668633420020342,0.004072569310665131,0.15069624781608582,2.4696595668792725,,,,,,,,
1771017366.9457889,ATTITUDE,,,,,,,,,0.006751846056431532,0.003351165447384119,0.6394585967063904,1.6915429830551147,,,,,,,,
1771017367.2079191,ATTITUDE,,,,,,,,,0.011388116516172886,0.0004081997321918607,0.93110591173172,0.9286675453186035,,,,,,,,
1771017368.1349976,ATTITUDE,,,,,,,,,0.012509643100202084,-0.0007573271868750453,1.0310795307159424,0.019186487421393394,,,,,,,,
1771017368.326591,ATTITUDE,,,,,,,,,0.012071364559233189,-0.00034780040732584894,1.0310169458389282,-0.019301000982522964,,,,,,,,
1771017368.5642333,ATTITUDE,,,,,,,,,0.013059273362159729,-0.0006324824644252658,1.0311611890792847,-0.01302968431264162,,,,,,,,
1771017368.7734518,ATTITUDE,,,,,,,,,0.015290756709873676,-0.0016101764049381018,1.029537320137024,0.014351055957376957,,,,,,,,
1771017369.0480294,ATTITUDE,,,,,,,,,0.016346273943781853,-0.0016541728982701898,1.0294803380966187,-0.0009407852194271982,,,,,,,,
1771017369.2797914,ALTITUDE,,,,,,,,597.5235595703125,,,,,,,,,,,,
