Timestamp,Message Type,Voltage (V),Current (A),Remaining (%),Servo1 Output,Servo2 Output,Servo8 Output,Servo4 Output,Altitude (m),Roll,Pitch,Yaw,Acceleration Z (m/s^2),Local X (m),Local Y (m),Local Z (m),Vibration X,Vibration Y,Vibration Z,ESC Info
1771013648.8222034,ATTITUDE,,,,,,,,,0.0018237794283777475,-0.017868515104055405,0.0020282301120460033,,,,,,,,
1771013649.0421932,ATTITUDE,,,,,,,,,0.0017104719299823046,-0.017849894240498543,0.0020143073052167892,,,,,,,,
1771013649.1613982,ALTITUDE,,,,,,,,594.2470703125,,,,,,,,,,,
1771013649.1857116,LOCAL_POSITION_NED,,,,,,,,,,,,,-0.00020042635151185095,0.00719456234946847,0.20851628482341766,,,,
1771013649.2324533,SERVO_OUTPUT_RAW,,,,0,0,0,0,,,,,,,,,,,,
1771013649.2720938,ATTITUDE,,,,,,,,,0.0016445411602035165,-0.017908843234181404,0.0020884720142930746,,,,,,,,
1771013649.5207388,ATTITUDE,,,,,,,,,0.0015078678261488676,-0.018103478476405144,0.002071998082101345,,,,,,,,
1771013649.537189,BATTERY_STATUS,12.032,0.0,79,,,,,,,,,,,,,,,,
1771013649.6825852,ATTITUDE,,,,,,,,,0.001499200938269496,-0.018262481316924095,0.0020512633491307497,,,,,,,,
1771013649.8933494,ATTITUDE,,,,,,,,,0.0016683387802913785,-0.01850593090057373,0.0020629637874662876,,,,,,,,
1771013650.092366,ATTITUDE,,,,,,,,,0.0018165603978559375,-0.018718773499131203,0.0019471499836072326,,,,,,,,
1771013650.3254032,ATTITUDE,,,,,,,,,0.0018465929897502065,-0.01885618269443512,0.001946157542988658,,,,,,,,
1771013650.6127794,ATTITUDE,,,,,,,,,0.0020070690661668777,-0.01904420182108879,0.0019779023714363575,,,,,,,,
1771013650.7725303,ATTITUDE,,,,,,,,,0.002059577265754342,-0.01919170841574669,0.0019753254018723965,,,,,,,,
1771013650.9622176,ATTITUDE,,,,,,,,,0.002110576257109642,-0.019294477999210358,0.0019739430863410234,,,,,,,,
1771013651.2020884,ATTITUDE,,,,,,,,,0.00217436533421278,-0.019389165565371513,0.0019227111479267478,,,,,,,,
1771013651.413661,ATTITUDE,,,,,,,,,0.0022375856060534716,-0.019443776458501816,0.0018229513661935925,,,,,,,,
1771013651.7122896,ATTITUDE,,,,,,,,,0.0023142299614846706,-0.01943843625485897,0.00178495270665735,,,,,,,,
1771013651.8985097,ATTITUDE,,,,,,,,,0.002288933377712965,-0.019526295363903046,0.001756377867422998,,,,,,,,
1771013652.1045017,ATTITUDE,,,,,,,,,0.002306621056050062,-0.01958090253174305,0.0016626541037112474,,,,,,,,
1771013652.2559536,ATTITUDE,,,,,,,,,0.0023558468092232943,-0.019664505496621132,0.0015174755826592445,,,,,,,,
1771013652.3226693,ALTITUDE,,,,,,,,594.1123046875,,,,,,,,,,,
1771013652.4021914,LOCAL_POSITION_NED,,,,,,,,,,,,,0.005423824302852154,0.010484769009053707,0.24223871529102325,,,,
1771013652.4289646,SERVO_OUTPUT_RAW,,,,0,0,0,0,,,,,,,,,,,,
1771013652.487227,ATTITUDE,,,,,,,,,0.0023393179289996624,-0.019655397161841393,0.0014138873666524887,,,,,,,,
1771013652.7310328,ATTITUDE,,,,,,,,,0.002320194384083152,-0.019673043861985207,0.0013032923452556133,,,,,,,,
1771013652.9760532,ATTITUDE,,,,,,,,,0.0022540302015841007,-0.019728466868400574,0.0012511508539319038,,,,,,,,
1771013653.1723073,ATTITUDE,,,,,,,,,0.0022578907664865255,-0.019788606092333794,0.0012011898215860128,,,,,,,,
1771013653.3688269,ATTITUDE,,,,,,,,,0.0022613711189478636,-0.01986503042280674,0.0011225318303331733,,,,,,,,
1771013653.5538807,ATTITUDE,,,,,,,,,0.0022047164384275675,-0.01987743191421032,0.0011455686762928963,,,,,,,,
1771013653.832595,ATTITUDE,,,,,,,,,0.0021312010940164328,-0.019859595224261284,0.0010958120692521334,,,,,,,,
1771013654.0328753,ATTITUDE,,,,,,,,,0.002076618140563369,-0.019884683191776276,0.0009733719634823501,,,,,,,,
1771013654.2726262,ATTITUDE,,,,,,,,,0.002003355883061886,-0.019918447360396385,0.0009209589334204793,,,,,,,,
1771013654.4553742,ATTITUDE,,,,,,,,,0.0019233848433941603,-0.019912928342819214,0.0009351710905320942,,,,,,,,
1771013654.6424315,ATTITUDE,,,,,,,,,0.001861247350461781,-0.019910812377929688,0.0008910872275009751,,,,,,,,
1771013654.9359157,ATTITUDE,,,,,,,,,0.0017700877506285906,-0.01986042410135269,0.0009043922182172537,,,,,,,,
1771013655.1185708,ATTITUDE,,,,,,,,,0.0017680673627182841,-0.019825950264930725,0.0007817177684046328,,,,,,,,
1771013655.353713,ATTITUDE,,,,,,,,,0.0016348351491615176,-0.01979091949760914,0.0006572355050593615,,,,,,,,
1771013655.5308924,ATTITUDE,,,,,,,,,0.0015217441832646728,-0.01967417076230049,0.000681717530824244,,,,,,,,
1771013655.597586,ALTITUDE,,,,,,,,594.2022094726562,,,,,,,,,,,
1771013655.6303012,LOCAL_POSITION_NED,,,,,,,,,,,,,0.005355781875550747,0.007217908278107643,0.2650264501571655,,,,
1771013655.6548593,SERVO_OUTPUT_RAW,,,,0,0,0,0,,,,,,,,,,,,
1771013655.7537868,ATTITUDE,,,,,,,,,0.0014425095869228244,-0.019566673785448074,0.000599428080022335,,,,,,,,
1771013655.9568372,ATTITUDE,,,,,,,,,0.0013145279372110963,-0.019518421962857246,0.0005758546758443117,,,,,,,,
1771013655.9741917,BATTERY_STATUS,12.036,0.0,79,,,,,,,,,,,,,,,,
1771013656.2343802,ATTITUDE,,,,,,,,,0.0013297514524310827,-0.019459428265690804,0.0004897979670204222,,,,,,,,
1771013656.4180279,ATTITUDE,,,,,,,,,0.001287864870391786,-0.01941481977701187,0.00041744791087694466,,,,,,,,
1771013656.614593,ATTITUDE,,,,,,,,,0.0012625498929992318,-0.01938495598733425,0.00041148322634398937,,,,,,,,
1771013656.814235,ATTITUDE,,,,,,,,,0.0012074937112629414,-0.019349589943885803,0.0004036028403788805,,,,,,,,
1771013657.0624325,ATTITUDE,,,,,,,,,0.0011664952617138624,-0.019327396526932716,0.00039483324508182704,,,,,,,,
1771013657.2675965,ATTITUDE,,,,,,,,,0.0010361396707594395,-0.019338907673954964,0.0003703928960021585,,,,,,,,
1771013657.5003436,ATTITUDE,,,,,,,,,0.0009172021527774632,-0.01927269622683525,0.0004434803850017488,,,,,,,,
1771013657.742269,ATTITUDE,,,,,,,,,0.0008132671355269849,-0.019244994968175888,0.0004850735713262111,,,,,,,,
1771013657.9131463,ATTITUDE,,,,,,,,,0.0007064388482831419,-0.01917300559580326,0.0005297081079334021,,,,,,,,
1771013658.167531,ATTITUDE,,,,,,,,,0.0007852482958696783,-0.019079850986599922,0.0005455486825667322,,,,,,,,
1771013658.3374133,ATTITUDE,,,,,,,,,0.0008638916769996285,-0.019036922603845596,0.0005308457766659558,,,,,,,,
1771013658.5924866,ATTITUDE,,,,,,,,,0.0009765888098627329,-0.01902034506201744,0.0004477511392906308,,,,,,,,
1771013658.812543,ATTITUDE,,,,,,,,,0.0010322111193090677,-0.018928162753582,0.00029913996695540845,,,,,,,,
1771013658.88263,ALTITUDE,,,,,,,,594.4320678710938,,,,,,,,,,,
1771013658.904545,LOCAL_POSITION_NED,,,,,,,,,,,,,0.003148830495774746,0.0056181177496910095,0.2648111581802368,,,,
1771013658.9271011,SERVO_OUTPUT_RAW,,,,0,0,0,0,,,,,,,,,,,,
1771013659.0429082,ATTITUDE,,,,,,,,,0.0011602730955928564,-0.01883525960147381,0.00028437672881409526,,,,,,,,
1771013659.2422726,ATTITUDE,,,,,,,,,0.0012744143605232239,-0.01879281736910343,0.00031688500894233584,,,,,,,,
1771013659.422166,ATTITUDE,,,,,,,,,0.0013240829575806856,-0.0187759418040514,0.00043129627010785043,,,,,,,,
1771013659.6113136,ATTITUDE,,,,,,,,,0.001386666321195662,-0.018740413710474968,0.00044699330464936793,,,,,,,,
1771013659.9029086,ATTITUDE,,,,,,,,,0.001496015232987702,-0.018709365278482437,0.00036920042475685477,,,,,,,,
1771013660.0820403,ATTITUDE,,,,,,,,,0.001585224294103682,-0.01867850497364998,0.0003318280214443803,,,,,,,,
1771013660.3343995,ATTITUDE,,,,,,,,,0.00158988730981946,-0.01863902620971203,0.0004412652342580259,,,,,,,,
1771013660.5280223,ATTITUDE,,,,,,,,,0.001617905218154192,-0.01865423657000065,0.00048299517948180437,,,,,,,,
1771013660.722705,ATTITUDE,,,,,,,,,0.0016622841358184814,-0.018604295328259468,0.0005234165582805872,,,,,,,,
1771013661.0154822,ATTITUDE,,,,,,,,,0.0016515477327629924,-0.01855178363621235,0.0004889760166406631,,,,,,,,
1771013661.1733348,ATTITUDE,,,,,,,,,0.0016905146185308695,-0.018515311181545258,0.0005053529166616499,,,,,,,,
1771013661.422854,ATTITUDE,,,,,,,,,0.0017520703841000795,-0.018485045060515404,0.0006030786316841841,,,,,,,,
1771013661.5977356,ATTITUDE,,,,,,,,,0.001722387271001935,-0.018424736335873604,0.0006843595765531063,,,,,,,,
1771013661.8100905,ATTITUDE,,,,,,,,,0.0017019786173477769,-0.018376383930444717,0.0006707540596835315,,,,,,,,
1771013662.0370212,ATTITUDE,,,,,,,,,0.0016475588781759143,-0.018405823037028313,0.0007041033240966499,,,,,,,,
1771013662.1648414,ALTITUDE,,,,,,,,594.00927734375,,,,,,,,,,,
1771013662.1880453,LOCAL_POSITION_NED,,,,,,,,,,,,,0.0010506492108106613,0.008595271967351437,0.26794683933258057,,,,
1771013662.2122037,SERVO_OUTPUT_RAW,,,,0,0,0,0,,,,,,,,,,,,
1771013662.3024075,ATTITUDE,,,,,,,,,0.001636029570363462,-0.01834207773208618,0.0007894276641309261,,,,,,,,
1771013662.4958386,ATTITUDE,,,,,,,,,0.0016727789770811796,-0.018445748835802078,0.0007500465726479888,,,,,,,,
1771013662.5043979,BATTERY_STATUS,12.024,0.0,79,,,,,,,,,,,,,,,,
1771013662.7069745,ATTITUDE,,,,,,,,,0.0016578176291659474,-0.018568245694041252,0.0007755759870633483,,,,,,,,
1771013662.9121983,ATTITUDE,,,,,,,,,0.0016329229110851884,-0.018742265179753304,0.0008052842458710074,,,,,,,,
1771013663.1043997,ATTITUDE,,,,,,,,,0.0015881034778431058,-0.018879910930991173,0.000809818331617862,,,,,,,,
1771013663.3428798,ATTITUDE,,,,,,,,,0.0016169564332813025,-0.019045062363147736,0.0008436855860054493,,,,,,,,
1771013663.6179643,ATTITUDE,,,,,,,,,0.001534131821244955,-0.019210869446396828,0.0008110099588520825,,,,,,,,
1771013663.762639,ATTITUDE,,,,,,,,,0.0015009292401373386,-0.019395198673009872,0.0008889781893230975,,,,,,,,
1771013663.95355,ATTITUDE,,,,,,,,,0.0014843236422166228,-0.01956888847053051,0.0008490703767165542,,,,,,,,
1771013664.2026844,ATTITUDE,,,,,,,,,0.0014449791051447392,-0.019716715440154076,0.0007923803059384227,,,,,,,,
1771013664.4525464,ATTITUDE,,,,,,,,,0.001421300694346428,-0.019759900867938995,0.0007287420448847115,,,,,,,,
1771013664.7028282,ATTITUDE,,,,,,,,,0.0014260753523558378,-0.019858162850141525,0.000639114819932729,,,,,,,,
1771013664.8624127,ATTITUDE,,,,,,,,,0.0013834255514666438,-0.019983390346169472,0.0005702972994185984,,,,,,,,
1771013665.0524285,ATTITUDE,,,,,,,,,0.0012642070651054382,-0.019985776394605637,0.0005312178982421756,,,,,,,,
1771013665.2633986,ATTITUDE,,,,,,,,,0.0011428878642618656,-0.020024161785840988,0.0004255142412148416,,,,,,,,
1771013665.43242,ALTITUDE,,,,,,,,594.4769897460938,,,,,,,,,,,
1771013665.4548185,LOCAL_POSITION_NED,,,,,,,,,,,,,0.007152322679758072,0.007618437521159649,0.27216270565986633,,,,
1771013665.482084,SERVO_OUTPUT_RAW,,,,0,0,0,0,,,,,,,,,,,,
1771013665.5371234,ATTITUDE,,,,,,,,,0.001047873985953629,-0.02008003182709217,0.0003658306086435914,,,,,,,,
1771013665.7328994,ATTITUDE,,,,,,,,,0.0009826704626902938,-0.02010372094810009,0.0003196216421201825,,,,,,,,
1771013665.935657,ATTITUDE,,,,,,,,,0.0008801274234429002,-0.020160067826509476,0.0002754076267592609,,,,,,,,
1771013666.1721313,ATTITUDE,,,,,,,,,0.0008869660669006407,-0.020186740905046463,0.00019345179316587746,,,,,,,,
1771013666.3851802,ATTITUDE,,,,,,,,,0.0007542230887338519,-0.02013411745429039,0.00012037312990287319,,,,,,,,
1771013666.6220016,ATTITUDE,,,,,,,,,0.0006958387675695121,-0.02009226568043232,6.562723137903959e-05,,,,,,,,
1771013666.8704138,ATTITUDE,,,,,,,,,0.0006529188249260187,-0.020108018070459366,-1.7308324459008873e-05,,,,,,,,
1771013667.035056,ATTITUDE,,,,,,,,,0.0006399508565664291,-0.02012447454035282,-6.850592762930319e-05,,,,,,,,
1771013667.2211,ATTITUDE,,,,,,,,,0.0006848014309071004,-0.020176004618406296,-0.0001726030750432983,,,,,,,,
1771013667.4444892,ATTITUDE,,,,,,,,,0.000866079528350383,-0.0202020350843668,-0.00026270095258951187,,,,,,,,
1771013667.6626189,ATTITUDE,,,,,,,,,0.0009561273036524653,-0.020151721313595772,-0.0003435779653955251,,,,,,,,
1771013667.925914,ATTITUDE,,,,,,,,,0.0011232859687879682,-0.020155541598796844,-0.00043334136717021465,,,,,,,,
1771013668.1120396,ATTITUDE,,,,,,,,,0.001246833591721952,-0.020145630463957787,-0.00041318137664347887,,,,,,,,
1771013668.3147826,ATTITUDE,,,,,,,,,0.0013875402510166168,-0.020162075757980347,-0.000418490672018379,,,,,,,,
1771013668.5326602,ATTITUDE,,,,,,,,,0.0014775039162486792,-0.020166536793112755,-0.00040691610774956644,,,,,,,,
1771013668.7022467,ALTITUDE,,,,,,,,594.0488891601562,,,,,,,,,,,
1771013668.7263577,LOCAL_POSITION_NED,,,,,,,,,,,,,0.006163007114082575,0.007541283965110779,0.27383825182914734,,,,
1771013668.7540226,SERVO_OUTPUT_RAW,,,,0,0,0,0,,,,,,,,,,,,
1771013668.8035538,ATTITUDE,,,,,,,,,0.00156816141679883,-0.02013154700398445,-0.00044789499952457845,,,,,,,,
1771013669.0224233,ATTITUDE,,,,,,,,,0.0016389165539294481,-0.02008543349802494,-0.0004391850088723004,,,,,,,,
1771013669.0345354,BATTERY_STATUS,12.028,0.0,79,,,,,,,,,,,,,,,,
1771013669.2278106,ATTITUDE,,,,,,,,,0.0017698364099487662,-0.020046934485435486,-0.00041607473394833505,,,,,,,,
1771013669.4141772,ATTITUDE,,,,,,,,,0.0018490760121494532,-0.0200748723000288,-0.00044146235450170934,,,,,,,,
1771013669.6142976,ATTITUDE,,,,,,,,,0.00184113928116858,-0.02006722055375576,-0.0004044647794216871,,,,,,,,
1771013669.7532597,VIBRATION,,,,,,,,,,,,,,,,2.574284709011554e-11,0.0022752697113901377,0.03144090622663498,
1771013669.8297443,ATTITUDE,,,,,,,,,0.0018719913205131888,-0.020039143040776253,-0.0003862309386022389,,,,,,,,
1771013670.082478,ATTITUDE,,,,,,,,,0.0018585126381367445,-0.019962307065725327,-0.0003433573292568326,,,,,,,,
1771013670.2835937,ATTITUDE,,,,,,,,,0.0018030744977295399,-0.01987924426794052,-0.00022999481006991118,,,,,,,,
1771013670.5219169,ATTITUDE,,,,,,,,,0.0018618815811350942,-0.019770517945289612,-9.96136077446863e-05,,,,,,,,
1771013670.716342,ATTITUDE,,,,,,,,,0.0018483540043234825,-0.019674625247716904,-5.478757884702645e-05,,,,,,,,
1771013670.9361584,ATTITUDE,,,,,,,,,0.0018771860050037503,-0.019585447385907173,-9.268172289012e-05,,,,,,,,
1771013671.1448298,ATTITUDE,,,,,,,,,0.0018584482604637742,-0.019528497010469437,-0.00014394230674952269,,,,,,,,
1771013671.422616,ATTITUDE,,,,,,,,,0.0018202621722593904,-0.019441796466708183,-0.00016372842947021127,,,,,,,,
1771013671.5701015,ATTITUDE,,,,,,,,,0.0017759244656190276,-0.019331075251102448,-0.00010354715777793899,,,,,,,,
1771013671.7927685,ATTITUDE,,,,,,,,,0.001713027828373015,-0.019306525588035583,5.864478225703351e-06,,,,,,,,
1771013671.860822,ALTITUDE,,,,,,,,594.1810302734375,,,,,,,,,,,
1771013671.8818734,LOCAL_POSITION_NED,,,,,,,,,,,,,0.003368183271959424,0.010124926455318928,0.33892160654067993,,,,
1771013671.9019525,SERVO_OUTPUT_RAW,,,,0,0,0,0,,,,,,,,,,,,
1771013672.019819,ATTITUDE,,,,,,,,,0.001656868145801127,-0.019288484007120132,0.00012918924039695412,,,,,,,,
1771013672.279065,ATTITUDE,,,,,,,,,0.0016107786213979125,-0.019283846020698547,0.00023910384334158152,,,,,,,,
1771013672.4593546,ATTITUDE,,,,,,,,,0.001468262285925448,-0.019189612939953804,0.0003475747362244874,,,,,,,,
1771013672.717412,ATTITUDE,,,,,,,,,0.0014440008671954274,-0.01918480545282364,0.0003914366534445435,,,,,,,,
1771013672.9332576,ATTITUDE,,,,,,,,,0.001335029723122716,-0.019104914739727974,0.0004726345941890031,,,,,,,,
1771013673.1832147,ATTITUDE,,,,,,,,,0.0012211237335577607,-0.019001875072717667,0.0005033689085394144,,,,,,,,
1771013673.4227562,ATTITUDE,,,,,,,,,0.001163060194812715,-0.018913811072707176,0.0005730613484047353,,,,,,,,
1771013673.592261,ATTITUDE,,,,,,,,,0.0010662530548870564,-0.018832135945558548,0.0005714560393244028,,,,,,,,
1771013673.8420877,ATTITUDE,,,,,,,,,0.0009366353624500334,-0.018838968127965927,0.0005279973847791553,,,,,,,,
1771013674.0946615,ATTITUDE,,,,,,,,,0.000860723783262074,-0.018804753199219704,0.0006048583891242743,,,,,,,,
1771013674.3126395,ATTITUDE,,,,,,,,,0.0008801925578154624,-0.018771760165691376,0.0006018206477165222,,,,,,,,
1771013674.5443044,ATTITUDE,,,,,,,,,0.0008317878236994147,-0.018738925457000732,0.0006059520528651774,,,,,,,,
1771013674.810369,ATTITUDE,,,,,,,,,0.0007291565416380763,-0.018714539706707,0.0005707042873837054,,,,,,,,
1771013674.9851358,ATTITUDE,,,,,,,,,0.0006240941002033651,-0.018646156415343285,0.0005553654627874494,,,,,,,,
1771013675.26291,ATTITUDE,,,,,,,,,0.0004993460606783628,-0.01866384595632553,0.0006312818150036037,,,,,,,,
1771013675.3277125,ALTITUDE,,,,,,,,594.0938110351562,,,,,,,,,,,
1771013675.4028282,LOCAL_POSITION_NED,,,,,,,,,,,,,0.001709515112452209,0.005292458925396204,0.41536709666252136,,,,
1771013675.4233837,SERVO_OUTPUT_RAW,,,,0,0,0,0,,,,,,,,,,,,
1771013675.4807253,ATTITUDE,,,,,,,,,0.00032766873482614756,-0.018631264567375183,0.0006478650029748678,,,,,,,,
1771013675.7423484,ATTITUDE,,,,,,,,,0.00028683102573268116,-0.01858065277338028,0.0007133479812182486,,,,,,,,
1771013675.977758,BATTERY_STATUS,12.031,0.0,79,,,,,,,,,,,,,,,,
1771013676.0020554,ATTITUDE,,,,,,,,,0.00015225740207824856,-0.018537480384111404,0.0008653952390886843,,,,,,,,
1771013676.1918314,ATTITUDE,,,,,,,,,3.873330570058897e-05,-0.018522758036851883,0.0010905703529715538,,,,,,,,
1771013676.40187,ATTITUDE,,,,,,,,,-4.8115845856955275e-05,-0.018453963100910187,0.0012312319595366716,,,,,,,,
1771013676.686987,ATTITUDE,,,,,,,,,-0.00011319901386741549,-0.01844617910683155,0.0013112692395225167,,,,,,,,
1771013676.8788297,ATTITUDE,,,,,,,,,-5.9947902627754956e-05,-0.018451781943440437,0.0013249070616438985,,,,,,,,
1771013677.1017475,ATTITUDE,,,,,,,,,0.00013213185593485832,-0.01840762235224247,0.001264580525457859,,,,,,,,
1771013677.353245,ATTITUDE,,,,,,,,,0.00032256508711725473,-0.018286507576704025,0.0011725114891305566,,,,,,,,
1771013677.5818565,ATTITUDE,,,,,,,,,0.0004997333162464201,-0.01837325468659401,0.0012444780441001058,,,,,,,,
1771013677.8136196,ATTITUDE,,,,,,,,,0.0007103124517016113,-0.01852940022945404,0.001424581976607442,,,,,,,,
1771013678.062993,ATTITUDE,,,,,,,,,0.0007847023080103099,-0.018575448542833328,0.001393748796544969,,,,,,,,
1771013678.25214,ATTITUDE,,,,,,,,,0.0010366933420300484,-0.01863018237054348,0.0011317242169752717,,,,,,,,
1771013678.5144784,ATTITUDE,,,,,,,,,0.001274646376259625,-0.01870199479162693,0.00146780745126307,,,,,,,,
1771013678.740938,ATTITUDE,,,,,,,,,0.001504175248555839,-0.018740404397249222,0.0019005039939656854,,,,,,,,
1771013678.863161,ALTITUDE,,,,,,,,593.8560180664062,,,,,,,,,,,
1771013678.8820753,LOCAL_POSITION_NED,,,,,,,,,,,,,0.01075602788478136,0.01995863951742649,0.4661004841327667,,,,
1771013678.9088252,SERVO_OUTPUT_RAW,,,,109,189,184,264,,,,,,,,,,,,
1771013679.0218856,ATTITUDE,,,,,,,,,0.0017526614246889949,-0.018819374963641167,0.0020657810382544994,,,,,,,,
1771013679.1737788,ATTITUDE,,,,,,,,,0.0018717185594141483,-0.01879786141216755,0.002063505817204714,,,,,,,,
1771013679.4619026,ATTITUDE,,,,,,,,,0.00217735324986279,-0.018926318734884262,0.0019692329224199057,,,,,,,,
1771013679.7028832,ATTITUDE,,,,,,,,,0.0023354662116616964,-0.0189106035977602,0.002360884565860033,,,,,,,,
1771013679.8768885,ATTITUDE,,,,,,,,,0.002601398155093193,-0.018897218629717827,0.0021361105609685183,,,,,,,,
1771013680.1317253,ATTITUDE,,,,,,,,,0.002713549882173538,-0.018850918859243393,0.0026051534805446863,,,,,,,,
1771013680.368739,ATTITUDE,,,,,,,,,0.002990925684571266,-0.018959375098347664,0.002837453968822956,,,,,,,,
1771013680.5902622,ATTITUDE,,,,,,,,,0.0031732977367937565,-0.01884934864938259,0.0025551572907716036,,,,,,,,
1771013680.7817447,ATTITUDE,,,,,,,,,0.003327762708067894,-0.018949491903185844,0.0027185536455363035,,,,,,,,
1771013681.062841,ATTITUDE,,,,,,,,,0.0035307917278259993,-0.019096501171588898,0.0032700609881430864,,,,,,,,
1771013681.281884,ATTITUDE,,,,,,,,,0.0037466478534042835,-0.018935494124889374,0.0032913999166339636,,,,,,,,
1771013681.5191176,ATTITUDE,,,,,,,,,0.0038685654290020466,-0.018998591229319572,0.0034861420281231403,,,,,,,,
1771013681.7637572,ATTITUDE,,,,,,,,,0.004114639479666948,-0.018917283043265343,0.0036024916917085648,,,,,,,,
1771013681.9817328,ATTITUDE,,,,,,,,,0.0042435829527676105,-0.018879162147641182,0.003673899220302701,,,,,,,,
1771013682.2050629,ATTITUDE,,,,,,,,,0.004522337578237057,-0.018985755741596222,0.0036844799760729074,,,,,,,,
1771013682.3243034,ALTITUDE,,,,,,,,593.8956298828125,,,,,,,,,,,
1771013682.3485131,LOCAL_POSITION_NED,,,,,,,,,,,,,0.09482751786708832,0.3599013090133667,0.42104610800743103,,,,
1771013682.373233,SERVO_OUTPUT_RAW,,,,109,195,163,250,,,,,,,,,,,,
1771013682.4716659,ATTITUDE,,,,,,,,,0.004737408831715584,-0.01907120645046234,0.003917165100574493,,,,,,,,
1771013682.6619718,ATTITUDE,,,,,,,,,0.004965787287801504,-0.019054964184761047,0.004109110217541456,,,,,,,,
1771013682.965916,BATTERY_STATUS,12.013,0.0,78,,,,,,,,,,,,,,,,
1771013682.9882722,ATTITUDE,,,,,,,,,0.005056316498667002,-0.018980100750923157,0.004434086848050356,,,,,,,,
1771013683.131754,ATTITUDE,,,,,,,,,0.005179557483643293,-0.018995128571987152,0.004328159149736166,,,,,,,,
1771013683.3919308,ATTITUDE,,,,,,,,,0.005353487096726894,-0.019306618720293045,0.00478505389764905,,,,,,,,
1771013683.6270273,ATTITUDE,,,,,,,,,0.005414028652012348,-0.01949371211230755,0.004609296098351479,,,,,,,,
1771013683.8753116,ATTITUDE,,,,,,,,,0.005557298194617033,-0.0198138989508152,0.004905604757368565,,,,,,,,
1771013684.0619993,ATTITUDE,,,,,,,,,0.005472298711538315,-0.020579125732183456,0.005230624228715897,,,,,,,,
1771013684.3456635,ATTITUDE,,,,,,,,,0.0058382004499435425,-0.020910874009132385,0.005285454448312521,,,,,,,,
1771013684.5717473,ATTITUDE,,,,,,,,,0.005996641702950001,-0.020886695012450218,0.005446113646030426,,,,,,,,
1771013684.7780557,ATTITUDE,,,,,,,,,0.006078091915696859,-0.021089736372232437,0.0052595557644963264,,,,,,,,
1771013685.008674,ATTITUDE,,,,,,,,,0.006261057686060667,-0.02165188640356064,0.005661192815750837,,,,,,,,
1771013685.2637568,ATTITUDE,,,,,,,,,0.006260450929403305,-0.021687841042876244,0.005994426552206278,,,,,,,,
1771013685.4719245,ATTITUDE,,,,,,,,,0.00465618958696723,-0.02630135975778103,0.008100883103907108,,,,,,,,
1771013685.689168,ATTITUDE,,,,,,,,,0.006299959495663643,-0.022999009117484093,0.009790721349418163,,,,,,,,
1771013685.812034,ALTITUDE,,,,,,,,594.1546020507812,,,,,,,,,,,
1771013685.8318233,LOCAL_POSITION_NED,,,,,,,,,,,,,0.3055483102798462,1.3911871910095215,0.5130807161331177,,,,
1771013685.8534808,SERVO_OUTPUT_RAW,,,,194,338,279,424,,,,,,,,,,,,
1771013685.9536965,ATTITUDE,,,,,,,,,0.006088224705308676,-0.023623062297701836,0.009398441761732101,,,,,,,,
1771013686.1818817,ATTITUDE,,,,,,,,,0.00639459490776062,-0.024532360956072807,0.010442553088068962,,,,,,,,
1771013686.4140706,ATTITUDE,,,,,,,,,0.0068955752067267895,-0.02312818542122841,0.01006027776747942,,,,,,,,
1771013686.594408,ATTITUDE,,,,,,,,,0.006863153073936701,-0.02361133322119713,0.010073375888168812,,,,,,,,
1771013686.8738122,ATTITUDE,,,,,,,,,0.007106410339474678,-0.02398122474551201,0.010299231857061386,,,,,,,,
1771013687.1118803,ATTITUDE,,,,,,,,,0.007047222927212715,-0.024108052253723145,0.010180489160120487,,,,,,,,
1771013687.3616593,ATTITUDE,,,,,,,,,0.007127202581614256,-0.024303684011101723,0.010290908627212048,,,,,,,,
1771013687.513846,ATTITUDE,,,,,,,,,0.0073126838542521,-0.024575501680374146,0.010931406170129776,,,,,,,,
1771013687.7650478,ATTITUDE,,,,,,,,,0.007255623582750559,-0.024899285286664963,0.01098883617669344,,,,,,,,
1771013687.9958322,ATTITUDE,,,,,,,,,0.0037695071659982204,-0.03582549840211868,0.015240778215229511,,,,,,,,
1771013688.2845116,ATTITUDE,,,,,,,,,0.006488322746008635,-0.028490381315350533,0.01940138079226017,,,,,,,,
1771013688.4678,ATTITUDE,,,,,,,,,0.0070817130617797375,-0.025886915624141693,0.020286276936531067,,,,,,,,
1771013688.713965,ATTITUDE,,,,,,,,,0.006994152441620827,-0.027307376265525818,0.020777840167284012,,,,,,,,
1771013688.9235337,ATTITUDE,,,,,,,,,0.005688830278813839,-0.030385799705982208,0.021595854312181473,,,,,,,,
1771013689.1917186,ATTITUDE,,,,,,,,,0.007023272104561329,-0.026996681466698647,0.022458430379629135,,,,,,,,
1771013689.2566633,ALTITUDE,,,,,,,,594.1123046875,,,,,,,,,,,
1771013689.331651,LOCAL_POSITION_NED,,,,,,,,,,,,,0.9247047305107117,3.357433795928955,0.6115546822547913,,,,
1771013689.3642354,SERVO_OUTPUT_RAW,,,,109,361,227,479,,,,,,,,,,,,
1771013689.4149983,ATTITUDE,,,,,,,,,0.002724279183894396,-0.03366721048951149,0.025941630825400352,,,,,,,,
1771013689.6616156,ATTITUDE,,,,,,,,,0.006226003170013428,-0.028429998084902763,0.03244660794734955,,,,,,,,
1771013689.911905,BATTERY_STATUS,11.932,0.83,77,,,,,,,,,,,,,,,,
1771013689.933833,ATTITUDE,,,,,,,,,-0.0001267740153707564,-0.04743584245443344,0.0434022955596447,,,,,,,,
1771013690.1230154,ATTITUDE,,,,,,,,,0.0077620926313102245,-0.019078180193901062,0.061492230743169785,,,,,,,,
1771013690.3426888,ATTITUDE,,,,,,,,,-0.001304516103118658,-0.06567345559597015,0.100227952003479,,,,,,,,
1771013690.5760615,ATTITUDE,,,,,,,,,-0.004432710353285074,-0.0683988630771637,0.15004706382751465,,,,,,,,
1771013690.8141398,ATTITUDE,,,,,,,,,0.00440233713015914,-0.029391437768936157,0.17774046957492828,,,,,,,,
1771013691.0417013,ATTITUDE,,,,,,,,,0.005140997003763914,-0.026516368612647057,0.19372473657131195,,,,,,,,
1771013691.2936451,ATTITUDE,,,,,,,,,0.003806557971984148,-0.0310874804854393,0.19755682349205017,,,,,,,,
1771013691.4617412,ATTITUDE,,,,,,,,,0.004125276580452919,-0.03115430660545826,0.19760248064994812,,,,,,,,
1771013691.7416303,ATTITUDE,,,,,,,,,0.0041203005239367485,-0.031174475327134132,0.19749251008033752,,,,,,,,
1771013691.9785848,ATTITUDE,,,,,,,,,0.004078884609043598,-0.0313621424138546,0.19728326797485352,,,,,,,,
1771013692.2348025,ATTITUDE,,,,,,,,,0.004357403609901667,-0.03142928704619408,0.19737084209918976,,,,,,,,
1771013692.3837485,ATTITUDE,,,,,,,,,0.0043260869570076466,-0.03148515895009041,0.19769418239593506,,,,,,,,
1771013692.6515918,ATTITUDE,,,,,,,,,0.004496997222304344,-0.03175133839249611,0.19734592735767365,,,,,,,,
1771013692.8381193,ALTITUDE,,,,,,,,593.9300537109375,,,,,,,,,,,
1771013692.8634043,LOCAL_POSITION_NED,,,,,,,,,,,,,2.2696359157562256,6.379749774932861,0.8809877634048462,,,,
1771013692.8815901,SERVO_OUTPUT_RAW,,,,109,537,430,858,,,,,,,,,,,,
1771013692.9219325,ATTITUDE,,,,,,,,,0.004323419649153948,-0.031836699694395065,0.1972825825214386,,,,,,,,
1771013693.1516004,ATTITUDE,,,,,,,,,0.004669335670769215,-0.03189420700073242,0.1978154182434082,,,,,,,,
1771013693.337766,ATTITUDE,,,,,,,,,0.004301241133362055,-0.032229430973529816,0.19690312445163727,,,,,,,,
1771013693.6231027,ATTITUDE,,,,,,,,,0.00453963503241539,-0.032280806452035904,0.19624367356300354,,,,,,,,
1771013693.7844706,ATTITUDE,,,,,,,,,0.009013623930513859,-0.03132300451397896,0.195431649684906,,,,,,,,
1771013694.071552,ATTITUDE,,,,,,,,,0.008305001072585583,-0.03147001564502716,0.19520911574363708,,,,,,,,
1771013694.3215508,ATTITUDE,,,,,,,,,0.00859472993761301,-0.031527407467365265,0.19505584239959717,,,,,,,,
1771013694.5376709,ATTITUDE,,,,,,,,,0.008859515190124512,-0.0316898487508297,0.19481712579727173,,,,,,,,
1771013694.748672,ATTITUDE,,,,,,,,,0.009171477518975735,-0.03180781006813049,0.19467034935951233,,,,,,,,
1771013695.0251114,ATTITUDE,,,,,,,,,0.009394267573952675,-0.031877823173999786,0.19440647959709167,,,,,,,,
1771013695.1959243,ATTITUDE,,,,,,,,,0.009623258374631405,-0.03194666653871536,0.1942242681980133,,,,,,,,
1771013695.4369993,ATTITUDE,,,,,,,,,0.009927697479724884,-0.032045748084783554,0.1940968930721283,,,,,,,,
1771013695.6649184,ATTITUDE,,,,,,,,,0.01015995629131794,-0.0321248434484005,0.193903386592865,,,,,,,,
1771013695.9434688,ATTITUDE,,,,,,,,,0.010398272424936295,-0.03222432732582092,0.19366034865379333,,,,,,,,
1771013696.1166139,ATTITUDE,,,,,,,,,0.010566281154751778,-0.03223366290330887,0.1935039758682251,,,,,,,,
1771013696.2868247,ALTITUDE,,,,,,,,593.82958984375,,,,,,,,,,,
1771013696.3041325,LOCAL_POSITION_NED,,,,,,,,,,,,,4.164318561553955,9.911582946777344,1.0345925092697144,,,,
1771013696.3315954,SERVO_OUTPUT_RAW,,,,0,0,0,0,,,,,,,,,,,,
1771013696.3715055,ATTITUDE,,,,,,,,,0.010551775805652142,-0.03206899017095566,0.19348789751529694,,,,,,,,
1771013696.5819063,ATTITUDE,,,,,,,,,0.010208231396973133,-0.03176947310566902,0.19352655112743378,,,,,,,,
1771013696.782888,BATTERY_STATUS,12.001,0.0,78,,,,,,,,,,,,,,,,
1771013696.8717232,ATTITUDE,,,,,,,,,0.00938183069229126,-0.03087332658469677,0.19362589716911316,,,,,,,,
1771013697.0668428,ATTITUDE,,,,,,,,,0.00749243563041091,-0.028981633484363556,0.19380855560302734,,,,,,,,
1771013697.3258846,ATTITUDE,,,,,,,,,0.005098654888570309,-0.026736335828900337,0.19396786391735077,,,,,,,,
1771013697.5017462,ATTITUDE,,,,,,,,,0.0030959921423345804,-0.02486063912510872,0.1940811425447464,,,,,,,,
1771013697.7898927,ATTITUDE,,,,,,,,,0.0018854941008612514,-0.02371688187122345,0.19430939853191376,,,,,,,,
1771013697.9717574,ATTITUDE,,,,,,,,,0.0013665269361808896,-0.02317224070429802,0.19445128738880157,,,,,,,,
1771013698.2767847,ATTITUDE,,,,,,,,,0.001031224150210619,-0.022950856015086174,0.19474627077579498,,,,,,,,
1771013698.444331,ATTITUDE,,,,,,,,,0.0008693797863088548,-0.02279682271182537,0.1951427161693573,,,,,,,,
1771013698.7368042,ATTITUDE,,,,,,,,,0.0004525186668615788,-0.022838106378912926,0.19560259580612183,,,,,,,,
1771013698.9157636,ATTITUDE,,,,,,,,,0.0006022236775606871,-0.02306249551475048,0.19579283893108368,,,,,,,,
1771013699.1618054,ATTITUDE,,,,,,,,,0.0007609871681779623,-0.02307138592004776,0.19585014879703522,,,,,,,,
1771013699.3674765,ATTITUDE,,,,,,,,,0.000862555461935699,-0.023249225690960884,0.19633591175079346,,,,,,,,
1771013699.5799086,ATTITUDE,,,,,,,,,0.0008474718197248876,-0.023232124745845795,0.1962159425020218,,,,,,,,
1771013699.7577605,ALTITUDE,,,,,,,,594.6539916992188,,,,,,,,,,,
1771013699.782495,LOCAL_POSITION_NED,,,,,,,,,,,,,4.07600212097168,9.767096519470215,0.5669302940368652,,,,
1771013699.807659,SERVO_OUTPUT_RAW,,,,196,296,297,397,,,,,,,,,,,,
1771013699.8482502,ATTITUDE,,,,,,,,,0.001436920720152557,-0.024086033925414085,0.19623009860515594,,,,,,,,
1771013700.053586,ATTITUDE,,,,,,,,,0.0019431133987382054,-0.02401524782180786,0.19630298018455505,,,,,,,,
1771013700.3048818,ATTITUDE,,,,,,,,,0.0012840774143114686,-0.02378428727388382,0.19610372185707092,,,,,,,,
1771013700.536562,ATTITUDE,,,,,,,,,-0.0031880661845207214,-0.19631518423557281,0.24779419600963593,,,,,,,,
1771013700.8135707,ATTITUDE,,,,,,,,,0.0008988719782792032,-0.15330994129180908,0.2809547781944275,,,,,,,,
1771013700.9956887,ATTITUDE,,,,,,,,,0.0020966785959899426,-0.013029850088059902,0.29233360290527344,,,,,,,,
1771013701.294653,ATTITUDE,,,,,,,,,0.004965543746948242,-0.020943185314536095,0.30315741896629333,,,,,,,,
1771013701.461522,ATTITUDE,,,,,,,,,0.0018706910777837038,-0.02486291155219078,0.308265745639801,,,,,,,,
1771013701.7076173,ATTITUDE,,,,,,,,,0.003834399161860347,-0.0226836409419775,0.31012779474258423,,,,,,,,
1771013701.9417083,ATTITUDE,,,,,,,,,0.0031106339301913977,-0.02512282319366932,0.310133159160614,,,,,,,,
1771013702.1760874,ATTITUDE,,,,,,,,,0.0037187254056334496,-0.024446921423077583,0.3105579912662506,,,,,,,,
1771013702.4114888,ATTITUDE,,,,,,,,,0.0037251049652695656,-0.024909071624279022,0.3102785050868988,,,,,,,,
1771013702.6435935,ATTITUDE,,,,,,,,,0.004440387710928917,-0.02401239052414894,0.3094148337841034,,,,,,,,
1771013702.8615587,ATTITUDE,,,,,,,,,0.004209580831229687,-0.023952610790729523,0.3092886209487915,,,,,,,,
1771013703.1214068,ATTITUDE,,,,,,,,,0.004189003258943558,-0.02406332641839981,0.3090835511684418,,,,,,,,
1771013703.2070491,ALTITUDE,,,,,,,,593.9432373046875,,,,,,,,,,,
1771013703.2402089,LOCAL_POSITION_NED,,,,,,,,,,,,,4.141568660736084,9.982372283935547,0.4687166213989258,,,,
1771013703.2631292,SERVO_OUTPUT_RAW,,,,109,216,191,298,,,,,,,,,,,,
1771013703.361542,ATTITUDE,,,,,,,,,0.004031006712466478,-0.0243479385972023,0.3090471029281616,,,,,,,,
1771013703.608671,ATTITUDE,,,,,,,,,0.0040558986365795135,-0.02453070878982544,0.30875417590141296,,,,,,,,
1771013703.8116424,BATTERY_STATUS,11.976,0.0,77,,,,,,,,,,,,,,,,
1771013703.8416562,ATTITUDE,,,,,,,,,0.004037079866975546,-0.024676932021975517,0.3089611530303955,,,,,,,,
1771013704.0217972,ATTITUDE,,,,,,,,,0.004140860866755247,-0.024771595373749733,0.3088540732860565,,,,,,,,
1771013704.2516494,ATTITUDE,,,,,,,,,0.004192090127617121,-0.025123152881860733,0.3087121546268463,,,,,,,,
1771013704.5414956,ATTITUDE,,,,,,,,,0.004092011600732803,-0.027288462966680527,0.30832207202911377,,,,,,,,
1771013704.5525832,VIBRATION,,,,,,,,,,,,,,,,3.0058245670261385e-07,0.20190051198005676,2.6084632873535156,
1771013704.7651386,ATTITUDE,,,,,,,,,0.004806689452379942,-0.02532890997827053,0.3083268404006958,,,,,,,,
1771013704.9315097,ATTITUDE,,,,,,,,,0.004707606974989176,-0.02530593052506447,0.308253675699234,,,,,,,,
1771013705.181539,ATTITUDE,,,,,,,,,0.004823679104447365,-0.025288229808211327,0.3082757592201233,,,,,,,,
1771013705.4051242,ATTITUDE,,,,,,,,,0.005089409649372101,-0.024777602404356003,0.30785080790519714,,,,,,,,
1771013705.675631,ATTITUDE,,,,,,,,,0.0050292243249714375,-0.02462039515376091,0.30777707695961,,,,,,,,
1771013705.8731854,ATTITUDE,,,,,,,,,0.005005184561014175,-0.024590685963630676,0.3076462149620056,,,,,,,,
1771013706.121318,ATTITUDE,,,,,,,,,0.005040985997766256,-0.024590840563178062,0.3074644207954407,,,,,,,,
1771013706.3230195,ATTITUDE,,,,,,,,,0.00508528808131814,-0.024560363963246346,0.30725520849227905,,,,,,,,
1771013706.589834,ATTITUDE,,,,,,,,,0.005230709444731474,-0.024609927088022232,0.30703336000442505,,,,,,,,
1771013706.654482,ALTITUDE,,,,,,,,594.1096801757812,,,,,,,,,,,
1771013706.7314293,LOCAL_POSITION_NED,,,,,,,,,,,,,4.307760238647461,10.660186767578125,0.5024899244308472,,,,
1771013706.7544508,SERVO_OUTPUT_RAW,,,,0,0,0,0,,,,,,,,,,,,
1771013706.809508,ATTITUDE,,,,,,,,,0.00532612344250083,-0.02468639612197876,0.3067839741706848,,,,,,,,
1771013707.0654287,ATTITUDE,,,,,,,,,0.0054350378923118114,-0.024696290493011475,0.3065948188304901,,,,,,,,
1771013707.2615056,ATTITUDE,,,,,,,,,0.005545055493712425,-0.024775823578238487,0.3063974380493164,,,,,,,,
1771013707.5676532,ATTITUDE,,,,,,,,,0.0058263312093913555,-0.024805305525660515,0.30617451667785645,,,,,,,,
1771013707.7214437,ATTITUDE,,,,,,,,,0.006102454848587513,-0.024848267436027527,0.30591830611228943,,,,,,,,
1771013708.011584,ATTITUDE,,,,,,,,,0.006396173965185881,-0.02489665523171425,0.3058575987815857,,,,,,,,
1771013708.241559,ATTITUDE,,,,,,,,,0.0066547514870762825,-0.024849286302924156,0.30595600605010986,,,,,,,,
1771013708.4781716,ATTITUDE,,,,,,,,,0.006798628251999617,-0.024848774075508118,0.3061489462852478,,,,,,,,
1771013708.6582484,ATTITUDE,,,,,,,,,0.006485560908913612,-0.024676885455846786,0.3063929080963135,,,,,,,,
1771013708.9613526,ATTITUDE,,,,,,,,,0.005706838332116604,-0.02433628775179386,0.3068322539329529,,,,,,,,
1771013709.121411,ATTITUDE,,,,,,,,,0.004799420014023781,-0.024031631648540497,0.30725324153900146,,,,,,,,
1771013709.3726134,ATTITUDE,,,,,,,,,0.004097184631973505,-0.023678943514823914,0.3077685832977295,,,,,,,,
1771013709.6116872,ATTITUDE,,,,,,,,,0.003566974075511098,-0.023398423567414284,0.3081620931625366,,,,,,,,
1771013709.821731,ATTITUDE,,,,,,,,,0.0033302349038422108,-0.023192482069134712,0.30834299325942993,,,,,,,,
1771013710.0359333,ATTITUDE,,,,,,,,,0.0033103949390351772,-0.022965462878346443,0.30854323506355286,,,,,,,,
1771013710.2079134,ALTITUDE,,,,,,,,594.1017456054688,,,,,,,,,,,
1771013710.2315824,LOCAL_POSITION_NED,,,,,,,,,,,,,4.3546013832092285,10.872841835021973,0.33622539043426514,,,,
1771013710.2528775,SERVO_OUTPUT_RAW,,,,0,0,0,0,,,,,,,,,,,,
1771013710.309399,ATTITUDE,,,,,,,,,0.005774981342256069,-0.02198471501469612,0.30870798230171204,,,,,,,,
1771013710.5198853,ATTITUDE,,,,,,,,,0.004196861293166876,-0.022672202438116074,0.30890408158302307,,,,,,,,
1771013710.7615774,BATTERY_STATUS,12.001,0.0,78,,,,,,,,,,,,,,,,
1771013710.7827358,ATTITUDE,,,,,,,,,0.0039086127653717995,-0.023037312552332878,0.30884119868278503,,,,,,,,
1771013711.0178015,ATTITUDE,,,,,,,,,0.004833796061575413,-0.022694027051329613,0.30896008014678955,,,,,,,,
1771013711.1815145,ATTITUDE,,,,,,,,,0.005062333773821592,-0.021627845242619514,0.3082614243030548,,,,,,,,
1771013711.4713085,ATTITUDE,,,,,,,,,0.005345616023987532,-0.021576449275016785,0.3076302409172058,,,,,,,,
1771013711.7081792,ATTITUDE,,,,,,,,,0.005275292322039604,-0.02207152172923088,0.3078802824020386,,,,,,,,
1771013711.8930411,ATTITUDE,,,,,,,,,0.004083025269210339,-0.023628830909729004,0.30830347537994385,,,,,,,,
1771013712.1246314,ATTITUDE,,,,,,,,,0.0029134771320968866,-0.02220895327627659,0.3081601858139038,,,,,,,,
1771013712.4227703,ATTITUDE,,,,,,,,,0.003218605648726225,-0.02208801917731762,0.3078840374946594,,,,,,,,
1771013712.5888627,ATTITUDE,,,,,,,,,0.003803621046245098,-0.021537141874432564,0.3074924945831299,,,,,,,,
1771013712.8335123,ATTITUDE,,,,,,,,,0.004733857233077288,-0.021127372980117798,0.30718743801116943,,,,,,,,
1771013713.071469,ATTITUDE,,,,,,,,,0.003807616652920842,-0.024796484038233757,0.3073464035987854,,,,,,,,
1771013713.3444154,ATTITUDE,,,,,,,,,0.001943171489983797,-0.026842981576919556,0.308182030916214,,,,,,,,
1771013713.551305,ATTITUDE,,,,,,,,,0.003333433298394084,-0.024472041055560112,0.30829715728759766,,,,,,,,
1771013713.673522,ALTITUDE,,,,,,,,593.8587036132812,,,,,,,,,,,
1771013713.697836,LOCAL_POSITION_NED,,,,,,,,,,,,,4.342065334320068,10.916269302368164,0.33406028151512146,,,,
1771013713.7220776,SERVO_OUTPUT_RAW,,,,0,0,0,0,,,,,,,,,,,,
1771013713.7712245,ATTITUDE,,,,,,,,,0.00922953151166439,-0.02115822210907936,0.3069172501564026,,,,,,,,
1771013713.9835312,ATTITUDE,,,,,,,,,0.0055804019793868065,-0.022269664332270622,0.306979238986969,,,,,,,,
1771013714.2326725,ATTITUDE,,,,,,,,,0.0054672760888934135,-0.022053541615605354,0.30680641531944275,,,,,,,,
1771013714.4646587,ATTITUDE,,,,,,,,,0.006620797794312239,-0.021660609170794487,0.3065245747566223,,,,,,,,
1771013714.7356632,ATTITUDE,,,,,,,,,0.005681158509105444,-0.02185460925102234,0.3064691126346588,,,,,,,,
1771013714.924525,ATTITUDE,,,,,,,,,0.006200337316840887,-0.021740837022662163,0.3062190115451813,,,,,,,,
1771013715.2113774,ATTITUDE,,,,,,,,,0.005927600432187319,-0.021704835817217827,0.3059609830379486,,,,,,,,
1771013715.3956962,ATTITUDE,,,,,,,,,0.00688118115067482,-0.021787874400615692,0.30582210421562195,,,,,,,,
1771013715.6230383,ATTITUDE,,,,,,,,,0.012100490741431713,-0.02108568139374256,0.3053225874900818,,,,,,,,
1771013715.8615363,ATTITUDE,,,,,,,,,0.012703828513622284,-0.024771010503172874,0.30552515387535095,,,,,,,,
1771013716.1314235,ATTITUDE,,,,,,,,,0.011424984782934189,-0.025443747639656067,0.3057273328304291,,,,,,,,
1771013716.3215148,ATTITUDE,,,,,,,,,0.010579376481473446,-0.02716958150267601,0.305738240480423,,,,,,,,
1771013716.6096804,ATTITUDE,,,,,,,,,0.011232340708374977,-0.027527447789907455,0.3051190972328186,,,,,,,,
1771013716.7746193,ATTITUDE,,,,,,,,,0.010692276060581207,-0.028137199580669403,0.3044525384902954,,,,,,,,
1771013716.9811568,ATTITUDE,,,,,,,,,0.011130442842841148,-0.028858276084065437,0.3040306866168976,,,,,,,,
1771013717.0988185,ALTITUDE,,,,,,,,594.2735595703125,,,,,,,,,,,
1771013717.123345,LOCAL_POSITION_NED,,,,,,,,,,,,,4.282524108886719,11.040024757385254,0.39870205521583557,,,,
1771013717.151372,SERVO_OUTPUT_RAW,,,,0,0,0,0,,,,,,,,,,,,
1771013717.271285,ATTITUDE,,,,,,,,,0.008577246218919754,-0.030437184497714043,0.3059643805027008,,,,,,,,
1771013717.5243168,ATTITUDE,,,,,,,,,0.008257576264441013,-0.022907128557562828,0.3076323866844177,,,,,,,,
1771013717.776557,BATTERY_STATUS,11.99,0.0,77,,,,,,,,,,,,,,,,
1771013717.7987945,ATTITUDE,,,,,,,,,0.008910798467695713,-0.023152535781264305,0.30780690908432007,,,,,,,,
1771013717.932316,ATTITUDE,,,,,,,,,0.011742629110813141,-0.022688576951622963,0.3073168098926544,,,,,,,,
1771013718.1962101,ATTITUDE,,,,,,,,,0.01107351016253233,-0.024459579959511757,0.3077341318130493,,,,,,,,
1771013718.3879693,ATTITUDE,,,,,,,,,0.011618702672421932,-0.024579154327511787,0.3076609671115875,,,,,,,,
1771013718.6824038,ATTITUDE,,,,,,,,,0.010998575948178768,-0.02555782161653042,0.30746567249298096,,,,,,,,
1771013718.8704,ATTITUDE,,,,,,,,,0.009033378213644028,-0.021203652024269104,0.306162029504776,,,,,,,,
1771013719.1062198,ATTITUDE,,,,,,,,,0.009014926850795746,-0.02127452939748764,0.3058992028236389,,,,,,,,
1771013719.3356898,ATTITUDE,,,,,,,,,0.009031289257109165,-0.021214589476585388,0.30573341250419617,,,,,,,,
1771013719.6088903,ATTITUDE,,,,,,,,,0.008971941657364368,-0.02109430357813835,0.3055289685726166,,,,,,,,
1771013719.8014402,ATTITUDE,,,,,,,,,0.008987536653876305,-0.021051766350865364,0.3053135871887207,,,,,,,,
1771013720.038417,ATTITUDE,,,,,,,,,0.00897990446537733,-0.020958974957466125,0.30511802434921265,,,,,,,,
1771013720.2640452,ATTITUDE,,,,,,,,,0.009076716378331184,-0.020908668637275696,0.3050098717212677,,,,,,,,
1771013720.5227706,ATTITUDE,,,,,,,,,0.009072225540876389,-0.020849237218499184,0.30495724081993103,,,,,,,,
1771013720.5888054,ALTITUDE,,,,,,,,593.980224609375,,,,,,,,,,,
1771013720.6133473,LOCAL_POSITION_NED,,,,,,,,,,,,,4.154080867767334,11.272862434387207,0.45292580127716064,,,,
1771013720.6414952,SERVO_OUTPUT_RAW,,,,0,0,0,0,,,,,,,,,,,,
1771013720.7412055,ATTITUDE,,,,,,,,,0.009153061546385288,-0.020700234919786453,0.3050791323184967,,,,,,,,
1771013721.0011797,ATTITUDE,,,,,,,,,0.009485759772360325,-0.01979522965848446,0.3054923713207245,,,,,,,,
1771013721.1815326,ATTITUDE,,,,,,,,,0.005502559710294008,-0.023157866671681404,0.3079017400741577,,,,,,,,
1771013721.478248,ATTITUDE,,,,,,,,,0.009764282964169979,-0.015846293419599533,0.3075413405895233,,,,,,,,
1771013721.637518,ATTITUDE,,,,,,,,,0.00340027897618711,-0.023287050426006317,0.30364030599594116,,,,,,,,
1771013721.9358382,ATTITUDE,,,,,,,,,0.006417843047529459,-0.020951008424162865,0.3035608232021332,,,,,,,,
1771013722.1823645,ATTITUDE,,,,,,,,,0.006170813925564289,-0.02202546037733555,0.3031326234340668,,,,,,,,
1771013722.3615315,ATTITUDE,,,,,,,,,0.006971108727157116,-0.025009794160723686,0.30252164602279663,,,,,,,,
1771013722.6061888,ATTITUDE,,,,,,,,,0.007005204446613789,-0.02380489557981491,0.30232617259025574,,,,,,,,
1771013722.781429,ATTITUDE,,,,,,,,,0.00726490281522274,-0.023273764178156853,0.3020040988922119,,,,,,,,
1771013723.0602517,ATTITUDE,,,,,,,,,0.007780900690704584,-0.022319771349430084,0.3022671341896057,,,,,,,,
1771013723.305951,ATTITUDE,,,,,,,,,0.007359884679317474,-0.02341192215681076,0.3019554615020752,,,,,,,,
1771013723.5530887,ATTITUDE,,,,,,,,,0.00779337203130126,-0.022663623094558716,0.30152377486228943,,,,,,,,
1771013723.726333,ATTITUDE,,,,,,,,,0.0074000004678964615,-0.02436736412346363,0.30127978324890137,,,,,,,,
1771013723.9911704,ATTITUDE,,,,,,,,,0.00662060733884573,-0.023937808349728584,0.30054235458374023,,,,,,,,
1771013724.105809,ALTITUDE,,,,,,,,602.4541625976562,,,,,,,,,,,
1771013724.13123,LOCAL_POSITION_NED,,,,,,,,,,,,,3.973381519317627,11.582609176635742,0.4643181562423706,,,,
1771013724.1627498,SERVO_OUTPUT_RAW,,,,109,212,170,273,,,,,,,,,,,,
1771013724.2124217,ATTITUDE,,,,,,,,,0.00813456904143095,-0.022809941321611404,0.3008398115634918,,,,,,,,
1771013724.4659443,ATTITUDE,,,,,,,,,0.007819244638085365,-0.022954070940613747,0.30052468180656433,,,,,,,,
1771013724.6544874,BATTERY_STATUS,11.989,0.0,77,,,,,,,,,,,,,,,,
1771013724.6773145,ATTITUDE,,,,,,,,,0.008684026077389717,-0.022565066814422607,0.3006717562675476,,,,,,,,
1771013724.9414008,ATTITUDE,,,,,,,,,0.009832949377596378,-0.02019435353577137,0.3009279668331146,,,,,,,,
1771013725.1113477,ATTITUDE,,,,,,,,,0.009416625835001469,-0.021454185247421265,0.300542414188385,,,,,,,,
1771013725.4032545,ATTITUDE,,,,,,,,,0.01070745661854744,-0.027630217373371124,0.3027108311653137,,,,,,,,
1771013725.6414917,ATTITUDE,,,,,,,,,0.01010172814130783,-0.02669134922325611,0.30086949467658997,,,,,,,,
1771013725.8733635,ATTITUDE,,,,,,,,,0.010039092972874641,-0.023510731756687164,0.3021015226840973,,,,,,,,
1771013726.0551786,ATTITUDE,,,,,,,,,0.011011047288775444,-0.020087504759430885,0.3032442629337311,,,,,,,,
1771013726.3432472,ATTITUDE,,,,,,,,,0.011004243977367878,-0.018775323405861855,0.30299851298332214,,,,,,,,
1771013726.5213852,ATTITUDE,,,,,,,,,0.012062402442097664,-0.017007997259497643,0.30327358841896057,,,,,,,,
1771013726.7677045,ATTITUDE,,,,,,,,,0.0113813616335392,-0.01767028495669365,0.3027496337890625,,,,,,,,
1771013727.0012848,ATTITUDE,,,,,,,,,0.011667951010167599,-0.013707634061574936,0.3025159537792206,,,,,,,,
1771013727.2585547,ATTITUDE,,,,,,,,,0.012474889867007732,-0.01609528437256813,0.30276721715927124,,,,,,,,
1771013727.4343846,ATTITUDE,,,,,,,,,0.012049212120473385,-0.016370883211493492,0.3023805022239685,,,,,,,,
1771013727.6011722,ALTITUDE,,,,,,,,594.0515747070312,,,,,,,,,,,
1771013727.6227846,LOCAL_POSITION_NED,,,,,,,,,,,,,3.335041046142578,12.789115905761719,0.22165662050247192,,,,
1771013727.6513293,SERVO_OUTPUT_RAW,,,,109,223,120,234,,,,,,,,,,,,
1771013727.746508,ATTITUDE,,,,,,,,,0.013185261748731136,-0.0134090231731534,0.3024507462978363,,,,,,,,
1771013727.9212563,ATTITUDE,,,,,,,,,0.012428347952663898,-0.014746369794011116,0.3019970953464508,,,,,,,,
1771013728.1511772,ATTITUDE,,,,,,,,,0.013305731117725372,-0.01727292314171791,0.3021790683269501,,,,,,,,
1771013728.3980854,ATTITUDE,,,,,,,,,0.016027797013521194,-0.013341396115720272,0.3024784028530121,,,,,,,,
1771013728.6627507,ATTITUDE,,,,,,,,,0.015832267701625824,-0.011286472901701927,0.30160173773765564,,,,,,,,
1771013728.8573055,ATTITUDE,,,,,,,,,0.018528660759329796,-0.009344058111310005,0.3025917112827301,,,,,,,,
1771013729.142837,ATTITUDE,,,,,,,,,0.018199022859334946,-0.010080846957862377,0.30236583948135376,,,,,,,,
1771013729.3241887,ATTITUDE,,,,,,,,,0.01813351735472679,-0.010562313720583916,0.3022298216819763,,,,,,,,
1771013729.559593,ATTITUDE,,,,,,,,,0.017942123115062714,-0.011031586676836014,0.3018898069858551,,,,,,,,
1771013729.7911396,ATTITUDE,,,,,,,,,0.018957091495394707,-0.009360476396977901,0.3019198179244995,,,,,,,,
1771013730.064792,ATTITUDE,,,,,,,,,0.018653063103556633,-0.009032526053488255,0.30153706669807434,,,,,,,,
1771013730.2528949,ATTITUDE,,,,,,,,,0.019809845834970474,-0.007715901825577021,0.3021816313266754,,,,,,,,
1771013730.451163,ATTITUDE,,,,,,,,,0.020027248188853264,-0.005624075885862112,0.3013417720794678,,,,,,,,
1771013730.731146,ATTITUDE,,,,,,,,,0.01886909082531929,-0.011709007434546947,0.3004322946071625,,,,,,,,
1771013730.9411318,ATTITUDE,,,,,,,,,0.020079372450709343,-0.011352353729307652,0.29923543334007263,,,,,,,,
1771013731.0611312,ALTITUDE,,,,,,,,593.5442504882812,,,,,,,,,,,
1771013731.0841763,LOCAL_POSITION_NED,,,,,,,,,,,,,2.1928486824035645,15.034111976623535,-0.4987480044364929,,,,
1771013731.111096,SERVO_OUTPUT_RAW,,,,149,290,109,250,,,,,,,,,,,,
1771013731.217487,ATTITUDE,,,,,,,,,0.018190741539001465,-0.012491830624639988,0.30058491230010986,,,,,,,,
1771013731.3729825,ATTITUDE,,,,,,,,,0.019042348489165306,-0.012912517413496971,0.30061519145965576,,,,,,,,
1771013731.6567316,BATTERY_STATUS,11.892,0.0,77,,,,,,,,,,,,,,,,
1771013731.6894028,ATTITUDE,,,,,,,,,0.0197801161557436,-0.01621411368250847,0.30070099234580994,,,,,,,,
1771013731.8810115,ATTITUDE,,,,,,,,,0.02075137384235859,-0.01705855317413807,0.3010514974594116,,,,,,,,
1771013732.0830793,ATTITUDE,,,,,,,,,0.01823039911687374,-0.020089726895093918,0.3009316325187683,,,,,,,,
1771013732.3328996,ATTITUDE,,,,,,,,,0.020412374287843704,-0.01723811775445938,0.30073046684265137,,,,,,,,
1771013732.615748,ATTITUDE,,,,,,,,,0.020576970651745796,-0.016734009608626366,0.3003945052623749,,,,,,,,
1771013732.8010757,ATTITUDE,,,,,,,,,0.020762110128998756,-0.017101040109992027,0.3006780743598938,,,,,,,,
1771013733.0311818,ATTITUDE,,,,,,,,,0.019762130454182625,-0.017101934179663658,0.30002546310424805,,,,,,,,
1771013733.254636,ATTITUDE,,,,,,,,,0.01976759172976017,-0.015987828373908997,0.2998316287994385,,,,,,,,
1771013733.501088,ATTITUDE,,,,,,,,,0.022277217358350754,-0.012790467590093613,0.30018308758735657,,,,,,,,
1771013733.7512143,ATTITUDE,,,,,,,,,0.021247508004307747,-0.01190379448235035,0.30133533477783203,,,,,,,,
1771013733.991503,ATTITUDE,,,,,,,,,0.019567109644412994,-0.01464899629354477,0.30039867758750916,,,,,,,,
1771013734.196242,ATTITUDE,,,,,,,,,0.018526773899793625,-0.015499875880777836,0.2999982237815857,,,,,,,,
1771013734.4181426,ATTITUDE,,,,,,,,,0.01873948611319065,-0.01614997535943985,0.2999911904335022,,,,,,,,
1771013734.5311012,ALTITUDE,,,,,,,,593.546875,,,,,,,,,,,
1771013734.556565,LOCAL_POSITION_NED,,,,,,,,,,,,,0.421747624874115,18.945476531982422,-0.22077158093452454,,,,
1771013734.5887754,SERVO_OUTPUT_RAW,,,,109,238,127,257,,,,,,,,,,,,
1771013734.6861103,ATTITUDE,,,,,,,,,0.01884423941373825,-0.01750810258090496,0.3004334568977356,,,,,,,,
1771013734.9112635,ATTITUDE,,,,,,,,,0.01809599995613098,-0.017133211717009544,0.2998226284980774,,,,,,,,
1771013735.0921314,ATTITUDE,,,,,,,,,0.017734725028276443,-0.016538310796022415,0.2996636629104614,,,,,,,,
1771013735.3411071,ATTITUDE,,,,,,,,,0.017731409519910812,-0.016235169023275375,0.29929086565971375,,,,,,,,
1771013735.556145,ATTITUDE,,,,,,,,,0.019134270027279854,-0.015609005466103554,0.2996804714202881,,,,,,,,
1771013735.851345,ATTITUDE,,,,,,,,,0.017170507460832596,-0.015258567407727242,0.29903867840766907,,,,,,,,
1771013736.0866039,ATTITUDE,,,,,,,,,0.016510145738720894,-0.016176361590623856,0.2986675202846527,,,,,,,,
1771013736.2510684,ATTITUDE,,,,,,,,,0.016416531056165695,-0.020032061263918877,0.2976517379283905,,,,,,,,
1771013736.501213,ATTITUDE,,,,,,,,,0.014678964391350746,-0.02050318941473961,0.29956120252609253,,,,,,,,
1771013736.7311542,ATTITUDE,,,,,,,,,0.013045030646026134,-0.018624205142259598,0.2992881238460541,,,,,,,,
1771013736.9633791,ATTITUDE,,,,,,,,,0.014679310843348503,-0.019268957898020744,0.2987421751022339,,,,,,,,
1771013737.19111,ATTITUDE,,,,,,,,,0.016298608854413033,-0.019067274406552315,0.2982613146305084,,,,,,,,
1771013737.446474,ATTITUDE,,,,,,,,,0.01757695898413658,-0.019341403618454933,0.2981889247894287,,,,,,,,
1771013737.6561131,ATTITUDE,,,,,,,,,0.01742384023964405,-0.01856911927461624,0.2981564700603485,,,,,,,,
1771013737.924133,ATTITUDE,,,,,,,,,0.017894329503178596,-0.018485862761735916,0.29818978905677795,,,,,,,,
1771013737.9935536,ALTITUDE,,,,,,,,594.667236328125,,,,,,,,,,,
1771013738.0677638,LOCAL_POSITION_NED,,,,,,,,,,,,,-1.6938130855560303,24.23552131652832,-0.04696110263466835,,,,
1771013738.092315,SERVO_OUTPUT_RAW,,,,109,265,111,267,,,,,,,,,,,,
1771013738.1413167,ATTITUDE,,,,,,,,,0.01875312626361847,-0.019063353538513184,0.29845815896987915,,,,,,,,
1771013738.3548245,ATTITUDE,,,,,,,,,0.018137898296117783,-0.017887601628899574,0.2981322705745697,,,,,,,,
1771013738.5947587,BATTERY_STATUS,11.974,0.0,77,,,,,,,,,,,,,,,,
1771013738.6210678,ATTITUDE,,,,,,,,,0.019159065559506416,-0.018716072663664818,0.2982124984264374,,,,,,,,
1771013738.861124,ATTITUDE,,,,,,,,,0.022316044196486473,-0.019167175516486168,0.29639923572540283,,,,,,,,
1771013739.0674531,ATTITUDE,,,,,,,,,0.02025587484240532,-0.02037341147661209,0.29708582162857056,,,,,,,,
1771013739.3009958,ATTITUDE,,,,,,,,,0.019392382353544235,-0.02096729911863804,0.2969251573085785,,,,,,,,
1771013739.3247075,VIBRATION,,,,,,,,,,,,,,,,1.011740646816861e-08,0.11228111386299133,0.9292690753936768,
1771013739.5623102,ATTITUDE,,,,,,,,,0.019508155062794685,-0.02429618313908577,0.2960696220397949,,,,,,,,
1771013739.7838495,ATTITUDE,,,,,,,,,0.019309375435113907,-0.023974347859621048,0.29571840167045593,,,,,,,,
1771013739.9711845,ATTITUDE,,,,,,,,,0.01959497109055519,-0.02243799902498722,0.295387327671051,,,,,,,,
1771013740.250933,ATTITUDE,,,,,,,,,0.02312890626490116,-0.02314821444451809,0.29593896865844727,,,,,,,,
1771013740.4259698,ATTITUDE,,,,,,,,,0.02383194863796234,-0.023426305502653122,0.2956311106681824,,,,,,,,
1771013740.7131035,ATTITUDE,,,,,,,,,0.021628007292747498,-0.02177594043314457,0.29513999819755554,,,,,,,,
1771013740.9009929,ATTITUDE,,,,,,,,,0.02149074897170067,-0.021188991144299507,0.2949769198894501,,,,,,,,
1771013741.170875,ATTITUDE,,,,,,,,,0.022460831329226494,-0.022152889519929886,0.2948441207408905,,,,,,,,
1771013741.3908856,ATTITUDE,,,,,,,,,0.023650268092751503,-0.022194163873791695,0.29510369896888733,,,,,,,,
1771013741.507953,ALTITUDE,,,,,,,,594.0648193359375,,,,,,,,,,,
1771013741.5320008,LOCAL_POSITION_NED,,,,,,,,,,,,,-3.731924533843994,30.02198028564453,-0.48502030968666077,,,,
1771013741.5609262,SERVO_OUTPUT_RAW,,,,139,337,109,306,,,,,,,,,,,,
1771013741.6630805,ATTITUDE,,,,,,,,,0.022115042433142662,-0.020190462470054626,0.294498473405838,,,,,,,,
1771013741.8694093,ATTITUDE,,,,,,,,,0.023175297304987907,-0.02065398171544075,0.29446426033973694,,,,,,,,
1771013742.100953,ATTITUDE,,,,,,,,,0.024571847170591354,-0.0211990587413311,0.2943287789821625,,,,,,,,
1771013742.33407,ATTITUDE,,,,,,,,,0.024584367871284485,-0.02090124972164631,0.2942758798599243,,,,,,,,
1771013742.5009573,ATTITUDE,,,,,,,,,0.02464960515499115,-0.022513026371598244,0.2941490411758423,,,,,,,,
1771013742.8009708,ATTITUDE,,,,,,,,,0.024842722341418266,-0.035688962787389755,0.2930571436882019,,,,,,,,
1771013743.0509264,ATTITUDE,,,,,,,,,0.029288357123732567,-0.024024270474910736,0.29680800437927246,,,,,,,,
1771013743.2539349,ATTITUDE,,,,,,,,,0.0258735753595829,-0.032203659415245056,0.2948065400123596,,,,,,,,
1771013743.4528003,ATTITUDE,,,,,,,,,0.026770301163196564,-0.03209675848484039,0.29449817538261414,,,,,,,,
1771013743.7512474,ATTITUDE,,,,,,,,,0.02635035663843155,-0.03243304416537285,0.29409274458885193,,,,,,,,
1771013743.9308836,ATTITUDE,,,,,,,,,0.027451297268271446,-0.034064315259456635,0.29367831349372864,,,,,,,,
1771013744.1673536,ATTITUDE,,,,,,,,,0.027879755944013596,-0.03337309882044792,0.29329296946525574,,,,,,,,
1771013744.410836,ATTITUDE,,,,,,,,,0.02867882139980793,-0.032391130924224854,0.2930513024330139,,,,,,,,
1771013744.6109145,ATTITUDE,,,,,,,,,0.028935328125953674,-0.03213227540254593,0.2927260100841522,,,,,,,,
1771013744.8450246,ATTITUDE,,,,,,,,,0.02769998274743557,-0.035392485558986664,0.29206499457359314,,,,,,,,
1771013745.013467,ALTITUDE,,,,,,,,594.2867431640625,,,,,,,,,,,
1771013745.036026,LOCAL_POSITION_NED,,,,,,,,,,,,,-6.042641639709473,37.18170166015625,-0.3985513746738434,,,,
1771013745.0608912,SERVO_OUTPUT_RAW,,,,109,337,123,351,,,,,,,,,,,,
1771013745.1019404,ATTITUDE,,,,,,,,,0.027084877714514732,-0.03505605086684227,0.29184845089912415,,,,,,,,
1771013745.3066761,ATTITUDE,,,,,,,,,0.029739800840616226,-0.036277398467063904,0.2914670705795288,,,,,,,,
1771013745.6033099,BATTERY_STATUS,11.969,2.94,77,,,,,,,,,,,,,,,,
1771013745.6252685,ATTITUDE,,,,,,,,,0.030880682170391083,-0.035709068179130554,0.29098570346832275,,,,,,,,
1771013745.767232,ATTITUDE,,,,,,,,,0.031033964827656746,-0.03724705055356026,0.2906893491744995,,,,,,,,
1771013746.0230396,ATTITUDE,,,,,,,,,0.03154562786221504,-0.0361270047724247,0.2904737591743469,,,,,,,,
1771013746.254598,ATTITUDE,,,,,,,,,0.03272086754441261,-0.03634098917245865,0.2901533842086792,,,,,,,,
1771013746.5054119,ATTITUDE,,,,,,,,,0.0340697318315506,-0.03633255138993263,0.29010820388793945,,,,,,,,
1771013746.744332,ATTITUDE,,,,,,,,,0.03423874080181122,-0.036862775683403015,0.28969806432724,,,,,,,,
1771013746.985497,ATTITUDE,,,,,,,,,0.034297361969947815,-0.038959551602602005,0.2892736494541168,,,,,,,,
1771013747.2020702,ATTITUDE,,,,,,,,,0.0345039889216423,-0.03917376324534416,0.28907060623168945,,,,,,,,
1771013747.4353712,ATTITUDE,,,,,,,,,0.03562105447053909,-0.04026462882757187,0.28891509771347046,,,,,,,,
1771013747.664508,ATTITUDE,,,,,,,,,0.03603166341781616,-0.04025430604815483,0.2883591055870056,,,,,,,,
1771013747.9110477,ATTITUDE,,,,,,,,,0.03590176999568939,-0.039561428129673004,0.2881337106227875,,,,,,,,
1771013748.126241,ATTITUDE,,,,,,,,,0.03492205962538719,-0.03899350017309189,0.28806427121162415,,,,,,,,
1771013748.3330941,ATTITUDE,,,,,,,,,0.033833567053079605,-0.03740186616778374,0.2881259024143219,,,,,,,,
1771013748.461031,ALTITUDE,,,,,,,,593.5706787109375,,,,,,,,,,,
1771013748.4920492,LOCAL_POSITION_NED,,,,,,,,,,,,,-7.7219462394714355,43.30508041381836,-0.1240338459610939,,,,
1771013748.5149965,SERVO_OUTPUT_RAW,,,,109,389,138,419,,,,,,,,,,,,
1771013748.601948,ATTITUDE,,,,,,,,,0.029293261468410492,-0.03562350943684578,0.28742948174476624,,,,,,,,
1771013748.8232412,ATTITUDE,,,,,,,,,0.02327324077486992,-0.03339230641722679,0.2866767942905426,,,,,,,,
1771013749.0594077,ATTITUDE,,,,,,,,,0.019524672999978065,-0.02952977828681469,0.2860919237136841,,,,,,,,
1771013749.2384176,ATTITUDE,,,,,,,,,0.016770681366324425,-0.027629587799310684,0.2856975495815277,,,,,,,,
1771013749.5029814,ATTITUDE,,,,,,,,,0.01632031798362732,-0.026881704106926918,0.285692036151886,,,,,,,,
1771013749.707366,ATTITUDE,,,,,,,,,0.016521092504262924,-0.026929499581456184,0.285330593585968,,,,,,,,
1771013750.0017426,ATTITUDE,,,,,,,,,0.017106061801314354,-0.026811910793185234,0.2851167619228363,,,,,,,,
1771013750.1610634,ATTITUDE,,,,,,,,,0.017355475574731827,-0.027416307479143143,0.2847035825252533,,,,,,,,
1771013750.452938,ATTITUDE,,,,,,,,,0.016720982268452644,-0.02667747624218464,0.2843792736530304,,,,,,,,
1771013750.676117,ATTITUDE,,,,,,,,,0.017023425549268723,-0.026552479714155197,0.28421011567115784,,,,,,,,
1771013750.9078372,ATTITUDE,,,,,,,,,0.01755903847515583,-0.026282016187906265,0.2840108871459961,,,,,,,,
1771013751.1339169,ATTITUDE,,,,,,,,,0.0176530908793211,-0.026397190988063812,0.2836100459098816,,,,,,,,
1771013751.3710034,ATTITUDE,,,,,,,,,0.016847798600792885,-0.025951605290174484,0.2832314074039459,,,,,,,,
1771013751.5872765,ATTITUDE,,,,,,,,,0.017945706844329834,-0.02423497848212719,0.28302544355392456,,,,,,,,
1771013751.855839,ATTITUDE,,,,,,,,,0.017834510654211044,-0.02496643178164959,0.28276926279067993,,,,,,,,
1771013751.8721101,ALTITUDE,,,,,,,,593.71337890625,,,,,,,,,,,
1771013751.9458535,LOCAL_POSITION_NED,,,,,,,,,,,,,-7.610500335693359,43.548912048339844,0.10377610474824905,,,,
1771013751.97914,SERVO_OUTPUT_RAW,,,,109,275,166,332,,,,,,,,,,,,
1771013752.062022,ATTITUDE,,,,,,,,,0.015485339798033237,-0.027476387098431587,0.2821759581565857,,,,,,,,
1771013752.3247561,ATTITUDE,,,,,,,,,0.013955189846456051,-0.02699597366154194,0.2810356318950653,,,,,,,,
1771013752.5156398,BATTERY_STATUS,11.974,0.0,76,,,,,,,,,,,,,,,,
1771013752.5407715,ATTITUDE,,,,,,,,,0.013094319961965084,-0.026873931288719177,0.2810623347759247,,,,,,,,
1771013752.7871604,ATTITUDE,,,,,,,,,0.012819950468838215,-0.02692965418100357,0.28092488646507263,,,,,,,,
1771013753.0058186,ATTITUDE,,,,,,,,,0.014736944809556007,-0.02614855021238327,0.2809962332248688,,,,,,,,
1771013753.2350528,ATTITUDE,,,,,,,,,0.015832444652915,-0.024090541526675224,0.28139206767082214,,,,,,,,
1771013753.4761815,ATTITUDE,,,,,,,,,0.015355391427874565,-0.025318440049886703,0.2810104489326477,,,,,,,,
1771013753.658362,ATTITUDE,,,,,,,,,0.015241977758705616,-0.02664828673005104,0.2808569073677063,,,,,,,,
1771013753.9054227,ATTITUDE,,,,,,,,,0.01571764051914215,-0.026551909744739532,0.2806146442890167,,,,,,,,
1771013754.1810284,ATTITUDE,,,,,,,,,0.014114096760749817,-0.028208518400788307,0.27992671728134155,,,,,,,,
1771013754.350889,ATTITUDE,,,,,,,,,0.01182276476174593,-0.02726740576326847,0.2795458734035492,,,,,,,,
1771013754.5979679,ATTITUDE,,,,,,,,,0.012261240743100643,-0.028842346742749214,0.2788866460323334,,,,,,,,
1771013754.8508294,ATTITUDE,,,,,,,,,0.012181896716356277,-0.02899887040257454,0.27883532643318176,,,,,,,,
1771013755.0552075,ATTITUDE,,,,,,,,,0.012125225737690926,-0.029116619378328323,0.278727650642395,,,,,,,,
1771013755.3148475,ATTITUDE,,,,,,,,,0.012123619206249714,-0.02919057011604309,0.2787199318408966,,,,,,,,
1771013755.4828794,ALTITUDE,,,,,,,,593.8877563476562,,,,,,,,,,,
1771013755.5006874,LOCAL_POSITION_NED,,,,,,,,,,,,,-7.121096134185791,44.4552116394043,0.5632966160774231,,,,
1771013755.5310204,SERVO_OUTPUT_RAW,,,,0,0,0,0,,,,,,,,,,,,
1771013755.581105,ATTITUDE,,,,,,,,,0.0121401846408844,-0.02929193526506424,0.2786605954170227,,,,,,,,
1771013755.752077,ATTITUDE,,,,,,,,,0.01217267382889986,-0.02941305562853813,0.2784956693649292,,,,,,,,
1771013756.0402458,ATTITUDE,,,,,,,,,0.012330854311585426,-0.02951946295797825,0.2783453166484833,,,,,,,,
1771013756.2410867,ATTITUDE,,,,,,,,,0.012317986227571964,-0.029581468552350998,0.2782866060733795,,,,,,,,
1771013756.4507666,ATTITUDE,,,,,,,,,0.012254609726369381,-0.029536886140704155,0.2780483365058899,,,,,,,,
1771013756.6970701,ATTITUDE,,,,,,,,,0.011850296519696712,-0.029035814106464386,0.2771558165550232,,,,,,,,
1771013756.9184105,ATTITUDE,,,,,,,,,0.011039271019399166,-0.027919817715883255,0.27511703968048096,,,,,,,,
1771013757.1565964,ATTITUDE,,,,,,,,,0.009998824447393417,-0.026563948020339012,0.2727815806865692,,,,,,,,
