Timestamp,Message Type,Voltage (V),Current (A),Remaining (%),Servo1 Output,Servo2 Output,Servo3 Output,Servo4 Output,Altitude (m),Roll,Pitch,Yaw,Acceleration Z (m/s^2),ESC Data,ESC Info
1771010302,MISSION_CURRENT,,,,,,,,,,,,,,
1771010302,VFR_HUD,,,,,,,,,,,,,,
1771010302,BATTERY_STATUS,12.159,0,84,,,,,,,,,,,
1771010302,ESTIMATOR_STATUS,,,,,,,,,,,,,,
1771010302,ATTITUDE,,,,,,,,,0.010906631,-0.009923195,-0.024085321,,,
1771010302,ATTITUDE_QUATERNION,,,,,,,,,,,,,,
1771010302,ATTITUDE,,,,,,,,,0.010885902,-0.009931594,-0.024068834,,,
1771010302,RC_CHANNELS,,,,,,,,,,,,,,
1771010302,GPS_RAW_INT,,,,,,,,,,,,,,
1771010302,ATTITUDE,,,,,,,,,0.010796437,-0.009879098,-0.023935523,,,
1771010302,ATTITUDE_QUATERNION,,,,,,,,,,,,,,
1771010302,ATTITUDE,,,,,,,,,0.01074577,-0.009808968,-0.023814742,,,
1771010302,VIBRATION,,,,,,,,,,,,,,
1771010303,ATTITUDE_QUATERNION,,,,,,,,,,,,,,
1771010303,VFR_HUD,,,,,,,,,,,,,,
1771010303,HEARTBEAT,,,,,,,,,,,,,,
1771010303,ATTITUDE,,,,,,,,,0.010724777,-0.009901598,-0.023791719,,,
1771010303,MISSION_CURRENT,,,,,,,,,,,,,,
1771010303,ATTITUDE_TARGET,,,,,,,,,,,,,,
1771010303,RC_CHANNELS,,,,,,,,,,,,,,
1771010303,GPS_RAW_INT,,,,,,,,,,,,,,
1771010303,ATTITUDE,,,,,,,,,0.010619415,-0.009936475,-0.023783458,,,
1771010303,ATTITUDE_QUATERNION,,,,,,,,,,,,,,
1771010303,ATTITUDE,,,,,,,,,0.010555484,-0.009913917,-0.023816509,,,
1771010303,GPS_STATUS,,,,,,,,,,,,,,
1771010303,ATTITUDE_QUATERNION,,,,,,,,,,,,,,
1771010303,ATTITUDE,,,,,,,,,0.010530988,-0.00994739,-0.023741128,,,
1771010303,VFR_HUD,,,,,,,,,,,,,,
1771010303,RC_CHANNELS,,,,,,,,,,,,,,
1771010304,GPS_RAW_INT,,,,,,,,,,,,,,
1771010304,ATTITUDE,,,,,,,,,0.01046358,-0.009910455,-0.023756905,,,
1771010304,ATTITUDE_QUATERNION,,,,,,,,,,,,,,
1771010304,HEARTBEAT,,,,,,,,,,,,,,
1771010304,MISSION_CURRENT,,,,,,,,,,,,,,
1771010304,ATTITUDE,,,,,,,,,0.010367751,-0.009875104,-0.023705855,,,
1771010304,ATTITUDE_QUATERNION,,,,,,,,,,,,,,
1771010304,ATTITUDE,,,,,,,,,0.010346685,-0.009852404,-0.023577796,,,
1771010304,RC_CHANNELS,,,,,,,,,,,,,,
1771010304,GPS_RAW_INT,,,,,,,,,,,,,,
1771010304,ATTITUDE,,,,,,,,,0.010250429,-0.009865141,-0.02341336,,,
1771010304,ATTITUDE_QUATERNION,,,,,,,,,,,,,,
1771010304,VFR_HUD,,,,,,,,,,,,,,
1771010304,ATTITUDE_TARGET,,,,,,,,,,,,,,
1771010305,ATTITUDE,,,,,,,,,0.010185381,-0.009868538,-0.023288421,,,
1771010305,ALTITUDE,,,,,,,,586.4918823,,,,,,
1771010305,EXTENDED_SYS_STATE,,,,,,,,,,,,,,
1771010305,LOCAL_POSITION_NED,,,,,,,,,,,,,,
1771010305,SCALED_PRESSURE,,,,,,,,,,,,,,
1771010305,SERVO_OUTPUT_RAW,,,,0,0,0,0,,,,,,,
1771010305,SYS_STATUS,,,,,,,,,,,,,,
1771010305,UNKNOWN_8,,,,,,,,,,,,,,
1771010305,HEARTBEAT,,,,,,,,,,,,,,
1771010305,ATTITUDE_QUATERNION,,,,,,,,,,,,,,
1771010305,MISSION_CURRENT,,,,,,,,,,,,,,
1771010305,ATTITUDE,,,,,,,,,0.010064499,-0.009887037,-0.023287335,,,
1771010305,RC_CHANNELS,,,,,,,,,,,,,,
1771010305,GPS_RAW_INT,,,,,,,,,,,,,,
1771010305,ATTITUDE,,,,,,,,,0.009989746,-0.009942353,-0.023312794,,,
1771010305,ATTITUDE_QUATERNION,,,,,,,,,,,,,,
1771010305,VFR_HUD,,,,,,,,,,,,,,
1771010305,ATTITUDE,,,,,,,,,0.009947256,-0.009964547,-0.023213333,,,
1771010305,ATTITUDE_QUATERNION,,,,,,,,,,,,,,
1771010305,ATTITUDE,,,,,,,,,0.009890766,-0.010007923,-0.023253875,,,
1771010306,RC_CHANNELS,,,,,,,,,,,,,,
1771010306,GPS_RAW_INT,,,,,,,,,,,,,,
1771010306,HEARTBEAT,,,,,,,,,,,,,,
1771010306,ATTITUDE,,,,,,,,,0.009881131,-0.009992483,-0.023230873,,,
1771010306,ATTITUDE_QUATERNION,,,,,,,,,,,,,,
1771010306,MISSION_CURRENT,,,,,,,,,,,,,,
1771010306,ATTITUDE,,,,,,,,,0.009785564,-0.010009031,-0.02320019,,,
1771010306,ATTITUDE_QUATERNION,,,,,,,,,,,,,,
1771010306,VFR_HUD,,,,,,,,,,,,,,
1771010306,ATTITUDE,,,,,,,,,0.009727383,-0.009925146,-0.02316503,,,
1771010306,ATTITUDE_TARGET,,,,,,,,,,,,,,
1771010306,RC_CHANNELS,,,,,,,,,,,,,,
1771010306,GPS_RAW_INT,,,,,,,,,,,,,,
1771010306,ATTITUDE,,,,,,,,,0.009640501,-0.009902567,-0.023139397,,,
1771010306,ATTITUDE_QUATERNION,,,,,,,,,,,,,,
1771010307,ATTITUDE,,,,,,,,,0.00953117,-0.009968821,-0.023055349,,,
1771010307,HEARTBEAT,,,,,,,,,,,,,,
1771010307,GPS_STATUS,,,,,,,,,,,,,,
1771010307,MISSION_CURRENT,,,,,,,,,,,,,,
1771010307,ATTITUDE_QUATERNION,,,,,,,,,,,,,,
1771010307,ATTITUDE,,,,,,,,,0.009455389,-0.009934542,-0.022950847,,,
1771010307,VFR_HUD,,,,,,,,,,,,,,
1771010307,RC_CHANNELS,,,,,,,,,,,,,,
1771010307,GPS_RAW_INT,,,,,,,,,,,,,,
1771010307,ATTITUDE,,,,,,,,,0.009418791,-0.010010902,-0.022968102,,,
1771010307,ATTITUDE_QUATERNION,,,,,,,,,,,,,,
1771010307,ATTITUDE,,,,,,,,,0.009311086,-0.009955681,-0.022939023,,,
1771010307,ATTITUDE_QUATERNION,,,,,,,,,,,,,,
1771010308,ATTITUDE,,,,,,,,,0.009219802,-0.009973127,-0.022844952,,,
1771010308,RC_CHANNELS,,,,,,,,,,,,,,
1771010308,HEARTBEAT,,,,,,,,,,,,,,
1771010308,PING,,,,,,,,,,,,,,
1771010308,MISSION_CURRENT,,,,,,,,,,,,,,
1771010308,GPS_RAW_INT,,,,,,,,,,,,,,
1771010308,ATTITUDE,,,,,,,,,0.009202089,-0.009963266,-0.022756714,,,
1771010308,ATTITUDE_QUATERNION,,,,,,,,,,,,,,
1771010308,VFR_HUD,,,,,,,,,,,,,,
1771010308,ATTITUDE_TARGET,,,,,,,,,,,,,,
1771010308,ATTITUDE,,,,,,,,,0.009167019,-0.010045876,-0.022676658,,,
1771010308,ALTITUDE,,,,,,,,586.7164917,,,,,,
1771010308,EXTENDED_SYS_STATE,,,,,,,,,,,,,,
1771010308,LOCAL_POSITION_NED,,,,,,,,,,,,,,
1771010308,SCALED_PRESSURE,,,,,,,,,,,,,,
1771010308,SERVO_OUTPUT_RAW,,,,0,0,0,0,,,,,,,
1771010308,SYS_STATUS,,,,,,,,,,,,,,
1771010308,UNKNOWN_8,,,,,,,,,,,,,,
1771010308,ATTITUDE_QUATERNION,,,,,,,,,,,,,,
1771010308,ATTITUDE,,,,,,,,,0.009084062,-0.010103296,-0.02273309,,,
1771010308,RC_CHANNELS,,,,,,,,,,,,,,
1771010308,GPS_RAW_INT,,,,,,,,,,,,,,
1771010309,ATTITUDE,,,,,,,,,0.009050531,-0.010155282,-0.02273697,,,
1771010309,ATTITUDE_QUATERNION,,,,,,,,,,,,,,
1771010309,HEARTBEAT,,,,,,,,,,,,,,
1771010309,VFR_HUD,,,,,,,,,,,,,,
1771010309,BATTERY_STATUS,12.162,0,84,,,,,,,,,,,
1771010309,ESTIMATOR_STATUS,,,,,,,,,,,,,,
1771010309,ATTITUDE,,,,,,,,,0.008976311,-0.010141792,-0.022620551,,,
1771010309,MISSION_CURRENT,,,,,,,,,,,,,,
1771010309,ATTITUDE_QUATERNION,,,,,,,,,,,,,,
1771010309,ATTITUDE,,,,,,,,,0.008961542,-0.010125467,-0.022593388,,,
1771010309,RC_CHANNELS,,,,,,,,,,,,,,
1771010309,GPS_RAW_INT,,,,,,,,,,,,,,
1771010309,ATTITUDE,,,,,,,,,0.008759477,-0.010155994,-0.022521649,,,
1771010309,ATTITUDE_QUATERNION,,,,,,,,,,,,,,
1771010309,ATTITUDE,,,,,,,,,0.008260353,-0.00986019,-0.022499174,,,
1771010309,ATTITUDE_QUATERNION,,,,,,,,,,,,,,
1771010310,VFR_HUD,,,,,,,,,,,,,,
1771010310,ATTITUDE,,,,,,,,,0.008052133,-0.009494188,-0.022467609,,,
1771010310,HEARTBEAT,,,,,,,,,,,,,,
1771010310,ATTITUDE_TARGET,,,,,,,,,,,,,,
1771010310,MISSION_CURRENT,,,,,,,,,,,,,,
1771010310,RC_CHANNELS,,,,,,,,,,,,,,
1771010310,GPS_RAW_INT,,,,,,,,,,,,,,
1771010310,ATTITUDE,,,,,,,,,0.007859886,-0.009381636,-0.022429716,,,
1771010310,ATTITUDE_QUATERNION,,,,,,,,,,,,,,
1771010310,ATTITUDE,,,,,,,,,0.007843561,-0.009326217,-0.02249895,,,
1771010310,GPS_STATUS,,,,,,,,,,,,,,
1771010310,ATTITUDE_QUATERNION,,,,,,,,,,,,,,
1771010310,ATTITUDE,,,,,,,,,0.007581817,-0.008963875,-0.02251507,,,
1771010310,VFR_HUD,,,,,,,,,,,,,,
1771010310,RC_CHANNELS,,,,,,,,,,,,,,
1771010310,GPS_RAW_INT,,,,,,,,,,,,,,
1771010311,ATTITUDE,,,,,,,,,0.008565301,-0.008440673,-0.022240119,,,
1771010311,ATTITUDE_QUATERNION,,,,,,,,,,,,,,
1771010311,HEARTBEAT,,,,,,,,,,,,,,
1771010311,MISSION_CURRENT,,,,,,,,,,,,,,
1771010311,ATTITUDE,,,,,,,,,0.007804083,-0.00720129,-0.022794914,,,
1771010311,ATTITUDE_QUATERNION,,,,,,,,,,,,,,
1771010311,ATTITUDE,,,,,,,,,0.007474896,-0.006502623,-0.022918725,,,
1771010311,RC_CHANNELS,,,,,,,,,,,,,,
1771010311,GPS_RAW_INT,,,,,,,,,,,,,,
1771010311,ATTITUDE,,,,,,,,,0.00710186,-0.006393882,-0.02315226,,,
1771010311,ATTITUDE_QUATERNION,,,,,,,,,,,,,,
1771010311,VFR_HUD,,,,,,,,,,,,,,
1771010311,ATTITUDE_TARGET,,,,,,,,,,,,,,
1771010311,ATTITUDE,,,,,,,,,0.007299026,-0.006090234,-0.022194389,,,
1771010312,ALTITUDE,,,,,,,,586.4654541,,,,,,
1771010312,EXTENDED_SYS_STATE,,,,,,,,,,,,,,
1771010312,LOCAL_POSITION_NED,,,,,,,,,,,,,,
1771010312,SCALED_PRESSURE,,,,,,,,,,,,,,
1771010312,SERVO_OUTPUT_RAW,,,,519,570,545,596,,,,,,,
1771010312,SYS_STATUS,,,,,,,,,,,,,,
1771010312,UNKNOWN_8,,,,,,,,,,,,,,
1771010312,ATTITUDE_QUATERNION,,,,,,,,,,,,,,
1771010312,HEARTBEAT,,,,,,,,,,,,,,
1771010312,ATTITUDE,,,,,,,,,0.004344486,-0.00408258,-0.012394728,,,
1771010312,MISSION_CURRENT,,,,,,,,,,,,,,
1771010312,RC_CHANNELS,,,,,,,,,,,,,,
1771010312,GPS_RAW_INT,,,,,,,,,,,,,,
1771010312,ATTITUDE,,,,,,,,,0.003563853,-0.004061481,0.011833305,,,
1771010312,ATTITUDE_QUATERNION,,,,,,,,,,,,,,
1771010312,VFR_HUD,,,,,,,,,,,,,,
1771010312,ATTITUDE,,,,,,,,,0.000724565,-0.001134791,0.0660441,,,
1771010312,ATTITUDE_QUATERNION,,,,,,,,,,,,,,
1771010312,ATTITUDE,,,,,,,,,-0.000621379,8.41E-05,0.165202379,,,
1771010313,RC_CHANNELS,,,,,,,,,,,,,,
1771010313,GPS_RAW_INT,,,,,,,,,,,,,,
1771010313,HEARTBEAT,,,,,,,,,,,,,,
1771010313,ATTITUDE,,,,,,,,,-0.00316202,-0.000142231,0.332745314,,,
1771010313,ATTITUDE_QUATERNION,,,,,,,,,,,,,,
1771010313,MISSION_CURRENT,,,,,,,,,,,,,,
1771010313,ATTITUDE,,,,,,,,,-0.004655357,0.001359108,0.555380702,,,
1771010313,ATTITUDE_QUATERNION,,,,,,,,,,,,,,
1771010313,VFR_HUD,,,,,,,,,,,,,,
1771010313,ATTITUDE,,,,,,,,,-0.002380371,0.001795434,0.843358457,,,
1771010313,ATTITUDE_TARGET,,,,,,,,,,,,,,
1771010313,RC_CHANNELS,,,,,,,,,,,,,,
1771010313,GPS_RAW_INT,,,,,,,,,,,,,,
1771010313,ATTITUDE,,,,,,,,,-0.006343792,0.002989792,1.200575233,,,
1771010313,ATTITUDE_QUATERNION,,,,,,,,,,,,,,
1771010314,ATTITUDE,,,,,,,,,-0.004049769,0.001824167,1.608972073,,,
1771010314,GPS_STATUS,,,,,,,,,,,,,,
1771010314,HEARTBEAT,,,,,,,,,,,,,,
1771010314,ATTITUDE_QUATERNION,,,,,,,,,,,,,,
1771010314,MISSION_CURRENT,,,,,,,,,,,,,,
1771010314,ATTITUDE,,,,,,,,,-0.004224688,0.003932479,2.119589806,,,
1771010314,VFR_HUD,,,,,,,,,,,,,,
1771010314,RC_CHANNELS,,,,,,,,,,,,,,
1771010314,GPS_RAW_INT,,,,,,,,,,,,,,
1771010314,ATTITUDE,,,,,,,,,-0.004437543,0.003970028,2.658582926,,,
1771010314,ATTITUDE_QUATERNION,,,,,,,,,,,,,,
1771010314,ATTITUDE,,,,,,,,,-0.003142012,0.002093132,-3.031549215,,,
1771010314,ATTITUDE_QUATERNION,,,,,,,,,,,,,,
1771010314,ATTITUDE,,,,,,,,,-0.000191118,0.002734124,-2.408795357,,,
1771010315,RC_CHANNELS,,,,,,,,,,,,,,
1771010315,HEARTBEAT,,,,,,,,,,,,,,
1771010315,GPS_RAW_INT,,,,,,,,,,,,,,
1771010315,ATTITUDE,,,,,,,,,0.000996261,0.00158988,-1.710443616,,,
1771010315,ATTITUDE_QUATERNION,,,,,,,,,,,,,,
1771010315,MISSION_CURRENT,,,,,,,,,,,,,,
1771010315,VFR_HUD,,,,,,,,,,,,,,
1771010315,ATTITUDE_TARGET,,,,,,,,,,,,,,
1771010315,ATTITUDE,,,,,,,,,0.0008934,0.001278418,-1.036895275,,,
1771010315,ALTITUDE,,,,,,,,586.6292725,,,,,,
1771010315,EXTENDED_SYS_STATE,,,,,,,,,,,,,,
1771010315,LOCAL_POSITION_NED,,,,,,,,,,,,,,
1771010315,SCALED_PRESSURE,,,,,,,,,,,,,,
1771010315,SERVO_OUTPUT_RAW,,,,967,911,967,911,,,,,,,
1771010315,SYS_STATUS,,,,,,,,,,,,,,
1771010315,UNKNOWN_8,,,,,,,,,,,,,,
1771010315,ATTITUDE_QUATERNION,,,,,,,,,,,,,,
1771010315,ATTITUDE,,,,,,,,,0.00021982,0.002995559,-0.322700351,,,
1771010315,RC_CHANNELS,,,,,,,,,,,,,,
1771010315,GPS_RAW_INT,,,,,,,,,,,,,,
1771010315,ATTITUDE,,,,,,,,,0.001300536,0.004191157,0.397034138,,,
1771010315,ATTITUDE_QUATERNION,,,,,,,,,,,,,,
1771010316,VFR_HUD,,,,,,,,,,,,,,
1771010316,BATTERY_STATUS,11.794,9.97,72,,,,,,,,,,,
1771010316,ESTIMATOR_STATUS,,,,,,,,,,,,,,
1771010316,HEARTBEAT,,,,,,,,,,,,,,
1771010316,ATTITUDE,,,,,,,,,0.002363371,0.002262705,1.146208048,,,
1771010316,MISSION_CURRENT,,,,,,,,,,,,,,
1771010316,ATTITUDE_QUATERNION,,,,,,,,,,,,,,
1771010316,ATTITUDE,,,,,,,,,-0.000378418,0.004144019,1.921218991,,,
1771010316,RC_CHANNELS,,,,,,,,,,,,,,
1771010316,GPS_RAW_INT,,,,,,,,,,,,,,
1771010316,ATTITUDE,,,,,,,,,0.001923328,0.0035326,2.697936296,,,
1771010316,ATTITUDE_QUATERNION,,,,,,,,,,,,,,
1771010316,ATTITUDE,,,,,,,,,0.000499607,0.00227131,-2.814939499,,,
1771010316,ATTITUDE_QUATERNION,,,,,,,,,,,,,,
1771010317,VFR_HUD,,,,,,,,,,,,,,
1771010317,ATTITUDE,,,,,,,,,0.001625759,0.002931495,-2.025271416,,,
1771010317,ATTITUDE_TARGET,,,,,,,,,,,,,,
1771010317,HEARTBEAT,,,,,,,,,,,,,,
1771010317,RC_CHANNELS,,,,,,,,,,,,,,
1771010317,MISSION_CURRENT,,,,,,,,,,,,,,
1771010317,GPS_RAW_INT,,,,,,,,,,,,,,
1771010317,ATTITUDE,,,,,,,,,0.001541461,0.002047713,-1.24317348,,,
1771010317,ATTITUDE_QUATERNION,,,,,,,,,,,,,,
1771010317,ATTITUDE,,,,,,,,,0.001273431,0.001288743,-0.399336219,,,
1771010317,GPS_STATUS,,,,,,,,,,,,,,
1771010317,ATTITUDE_QUATERNION,,,,,,,,,,,,,,
1771010317,ATTITUDE,,,,,,,,,-7.59E-05,-0.000235934,0.398831964,,,
1771010317,VFR_HUD,,,,,,,,,,,,,,
1771010317,RC_CHANNELS,,,,,,,,,,,,,,
1771010318,GPS_RAW_INT,,,,,,,,,,,,,,
1771010318,ATTITUDE,,,,,,,,,0.000729841,0.001448314,1.22863245,,,
1771010318,ATTITUDE_QUATERNION,,,,,,,,,,,,,,
1771010318,HEARTBEAT,,,,,,,,,,,,,,
1771010318,PING,,,,,,,,,,,,,,
1771010318,ATTITUDE,,,,,,,,,0.00100679,-0.000631988,2.069464445,,,
1771010318,MISSION_CURRENT,,,,,,,,,,,,,,
1771010318,ATTITUDE_QUATERNION,,,,,,,,,,,,,,
1771010318,ATTITUDE,,,,,,,,,0.00099273,-0.001056901,2.955089569,,,
1771010318,RC_CHANNELS,,,,,,,,,,,,,,
1771010318,GPS_RAW_INT,,,,,,,,,,,,,,
1771010318,ATTITUDE,,,,,,,,,0.000540919,-0.000602318,-2.406643391,,,
1771010318,ATTITUDE_QUATERNION,,,,,,,,,,,,,,
1771010318,VFR_HUD,,,,,,,,,,,,,,
1771010318,ATTITUDE_TARGET,,,,,,,,,,,,,,
1771010318,ATTITUDE,,,,,,,,,-0.001285318,0.001222319,-1.488829732,,,
1771010319,ALTITUDE,,,,,,,,587.3612061,,,,,,
1771010319,EXTENDED_SYS_STATE,,,,,,,,,,,,,,
1771010319,LOCAL_POSITION_NED,,,,,,,,,,,,,,
1771010319,SCALED_PRESSURE,,,,,,,,,,,,,,
1771010319,SERVO_OUTPUT_RAW,,,,1012,1025,1007,1020,,,,,,,
1771010319,SYS_STATUS,,,,,,,,,,,,,,
1771010319,UNKNOWN_8,,,,,,,,,,,,,,
1771010319,ATTITUDE_QUATERNION,,,,,,,,,,,,,,
1771010319,HEARTBEAT,,,,,,,,,,,,,,
1771010319,ATTITUDE,,,,,,,,,-0.002885931,-0.00052682,-0.584080935,,,
1771010319,MISSION_CURRENT,,,,,,,,,,,,,,
1771010319,RC_CHANNELS,,,,,,,,,,,,,,
1771010319,GPS_RAW_INT,,,,,,,,,,,,,,
1771010319,ATTITUDE,,,,,,,,,0.001018834,0.00268482,0.349909604,,,
1771010319,ATTITUDE_QUATERNION,,,,,,,,,,,,,,
1771010319,VFR_HUD,,,,,,,,,,,,,,
1771010319,ATTITUDE,,,,,,,,,0.000522618,-0.00024808,1.254424334,,,
1771010319,ATTITUDE_QUATERNION,,,,,,,,,,,,,,
1771010319,ATTITUDE,,,,,,,,,0.00153629,-8.93E-05,2.221749067,,,
1771010319,RC_CHANNELS,,,,,,,,,,,,,,
1771010320,GPS_RAW_INT,,,,,,,,,,,,,,
1771010320,ATTITUDE,,,,,,,,,-0.000982242,-0.00371265,3.121361256,,,
1771010320,ATTITUDE_QUATERNION,,,,,,,,,,,,,,
1771010320,HEARTBEAT,,,,,,,,,,,,,,
1771010320,MISSION_CURRENT,,,,,,,,,,,,,,
1771010320,ATTITUDE,,,,,,,,,-0.003735289,-0.002453703,-2.241713524,,,
1771010320,ATTITUDE_QUATERNION,,,,,,,,,,,,,,
1771010320,VFR_HUD,,,,,,,,,,,,,,
1771010320,ATTITUDE,,,,,,,,,-0.000623559,-0.001324669,-1.332033753,,,
1771010320,ATTITUDE_TARGET,,,,,,,,,,,,,,
1771010320,RC_CHANNELS,,,,,,,,,,,,,,
1771010320,GPS_RAW_INT,,,,,,,,,,,,,,
1771010320,ATTITUDE,,,,,,,,,0.012127846,0.003425558,-0.379696101,,,
1771010320,ATTITUDE_QUATERNION,,,,,,,,,,,,,,
1771010321,ATTITUDE,,,,,,,,,-0.017497312,0.003349252,0.600678563,,,
1771010321,GPS_STATUS,,,,,,,,,,,,,,
1771010321,HEARTBEAT,,,,,,,,,,,,,,
1771010321,ATTITUDE_QUATERNION,,,,,,,,,,,,,,
1771010321,ATTITUDE,,,,,,,,,-0.001064428,0.005751443,1.589062452,,,
1771010321,MISSION_CURRENT,,,,,,,,,,,,,,
1771010321,VFR_HUD,,,,,,,,,,,,,,
1771010321,RC_CHANNELS,,,,,,,,,,,,,,
1771010321,GPS_RAW_INT,,,,,,,,,,,,,,
1771010321,ATTITUDE,,,,,,,,,-0.0019625,0.002344339,2.553626537,,,
1771010321,ATTITUDE_QUATERNION,,,,,,,,,,,,,,
1771010321,ATTITUDE,,,,,,,,,-0.00152189,-0.000614484,-2.736769199,,,
1771010321,ATTITUDE_QUATERNION,,,,,,,,,,,,,,
1771010321,ATTITUDE,,,,,,,,,0.007676781,0.005211705,-1.757153153,,,
1771010322,RC_CHANNELS,,,,,,,,,,,,,,
1771010322,HEARTBEAT,,,,,,,,,,,,,,
1771010322,GPS_RAW_INT,,,,,,,,,,,,,,
1771010322,ATTITUDE,,,,,,,,,-0.000580858,0.000170381,-0.693063557,,,
1771010322,ATTITUDE_QUATERNION,,,,,,,,,,,,,,
1771010322,VFR_HUD,,,,,,,,,,,,,,
1771010322,MISSION_CURRENT,,,,,,,,,,,,,,
1771010322,ATTITUDE_TARGET,,,,,,,,,,,,,,
1771010322,ATTITUDE,,,,,,,,,0.000817171,0.002539518,0.321356118,,,
1771010322,ALTITUDE,,,,,,,,587.0758057,,,,,,
1771010322,EXTENDED_SYS_STATE,,,,,,,,,,,,,,
1771010322,LOCAL_POSITION_NED,,,,,,,,,,,,,,
1771010322,SCALED_PRESSURE,,,,,,,,,,,,,,
1771010322,SERVO_OUTPUT_RAW,,,,978,979,938,939,,,,,,,
1771010322,SYS_STATUS,,,,,,,,,,,,,,
1771010322,UNKNOWN_8,,,,,,,,,,,,,,
1771010322,ATTITUDE_QUATERNION,,,,,,,,,,,,,,
1771010322,ATTITUDE,,,,,,,,,-0.000880778,-0.003358452,1.36771059,,,
1771010322,RC_CHANNELS,,,,,,,,,,,,,,
1771010322,GPS_RAW_INT,,,,,,,,,,,,,,
1771010322,ATTITUDE,,,,,,,,,-0.000970086,-0.002932467,2.405679941,,,
1771010322,ATTITUDE_QUATERNION,,,,,,,,,,,,,,
1771010323,VFR_HUD,,,,,,,,,,,,,,
1771010323,BATTERY_STATUS,11.648,13.18,65,,,,,,,,,,,
1771010323,ESTIMATOR_STATUS,,,,,,,,,,,,,,
1771010323,ATTITUDE,,,,,,,,,-0.004099877,0.000326934,-2.785497427,,,
1771010323,HEARTBEAT,,,,,,,,,,,,,,
1771010323,ATTITUDE_QUATERNION,,,,,,,,,,,,,,
1771010323,MISSION_CURRENT,,,,,,,,,,,,,,
1771010323,ATTITUDE,,,,,,,,,-0.00093585,-0.002675313,-1.666818738,,,
1771010323,RC_CHANNELS,,,,,,,,,,,,,,
1771010323,GPS_RAW_INT,,,,,,,,,,,,,,
1771010323,ATTITUDE,,,,,,,,,0.001281128,0.004387502,-0.569949865,,,
1771010323,ATTITUDE_QUATERNION,,,,,,,,,,,,,,
1771010323,ATTITUDE,,,,,,,,,-0.00027662,-0.000100209,0.542026758,,,
1771010323,ATTITUDE_QUATERNION,,,,,,,,,,,,,,
1771010323,VFR_HUD,,,,,,,,,,,,,,
1771010324,ATTITUDE,,,,,,,,,0.000623801,-0.005108626,1.646206498,,,
1771010324,ATTITUDE_TARGET,,,,,,,,,,,,,,
1771010324,HEARTBEAT,,,,,,,,,,,,,,
1771010324,RC_CHANNELS,,,,,,,,,,,,,,
1771010324,GPS_RAW_INT,,,,,,,,,,,,,,
1771010324,ATTITUDE,,,,,,,,,-0.000239798,-0.001926232,2.786500931,,,
1771010324,ATTITUDE_QUATERNION,,,,,,,,,,,,,,
1771010324,MISSION_CURRENT,,,,,,,,,,,,,,
1771010324,ATTITUDE,,,,,,,,,-0.001300726,0.000947884,-2.37472868,,,
1771010324,GPS_STATUS,,,,,,,,,,,,,,
1771010324,ATTITUDE_QUATERNION,,,,,,,,,,,,,,
1771010324,ATTITUDE,,,,,,,,,0.000402717,0.001385571,-1.187383413,,,
1771010324,VFR_HUD,,,,,,,,,,,,,,
1771010324,RC_CHANNELS,,,,,,,,,,,,,,
1771010324,GPS_RAW_INT,,,,,,,,,,,,,,
1771010325,ATTITUDE,,,,,,,,,0.000948021,0.002190947,-0.064714655,,,
1771010325,ATTITUDE_QUATERNION,,,,,,,,,,,,,,
1771010325,HEARTBEAT,,,,,,,,,,,,,,
1771010325,ATTITUDE,,,,,,,,,7.56E-05,-0.000652044,1.078653097,,,
1771010325,MISSION_CURRENT,,,,,,,,,,,,,,
1771010325,ATTITUDE_QUATERNION,,,,,,,,,,,,,,
1771010325,ATTITUDE,,,,,,,,,-0.002510973,-0.002314125,2.207946301,,,
1771010325,RC_CHANNELS,,,,,,,,,,,,,,
1771010325,GPS_RAW_INT,,,,,,,,,,,,,,
1771010325,ATTITUDE,,,,,,,,,-0.001151918,-0.000519342,-2.928906202,,,
1771010325,ATTITUDE_QUATERNION,,,,,,,,,,,,,,
1771010325,VFR_HUD,,,,,,,,,,,,,,
1771010325,ATTITUDE_TARGET,,,,,,,,,,,,,,
1771010325,ATTITUDE,,,,,,,,,0.001467453,0.004672925,-1.767095447,,,
1771010326,ALTITUDE,,,,,,,,587.1762695,,,,,,
1771010326,EXTENDED_SYS_STATE,,,,,,,,,,,,,,
1771010326,LOCAL_POSITION_NED,,,,,,,,,,,,,,
1771010326,SCALED_PRESSURE,,,,,,,,,,,,,,
1771010326,SERVO_OUTPUT_RAW,,,,1001,995,959,953,,,,,,,
1771010326,SYS_STATUS,,,,,,,,,,,,,,
1771010326,UNKNOWN_8,,,,,,,,,,,,,,
1771010326,ATTITUDE_QUATERNION,,,,,,,,,,,,,,
1771010326,ATTITUDE,,,,,,,,,0.000373954,0.000596424,-0.654083133,,,
1771010326,HEARTBEAT,,,,,,,,,,,,,,
1771010326,RC_CHANNELS,,,,,,,,,,,,,,
1771010326,MISSION_CURRENT,,,,,,,,,,,,,,
1771010326,GPS_RAW_INT,,,,,,,,,,,,,,
1771010326,ATTITUDE,,,,,,,,,-0.008232801,0.005500898,0.348445177,,,
1771010326,ATTITUDE_QUATERNION,,,,,,,,,,,,,,
1771010326,VFR_HUD,,,,,,,,,,,,,,
1771010326,ATTITUDE,,,,,,,,,-0.003604404,-0.006992978,1.271529675,,,
1771010326,ATTITUDE_QUATERNION,,,,,,,,,,,,,,
1771010326,ATTITUDE,,,,,,,,,-0.004629636,-0.013132399,2.017468929,,,
1771010326,RC_CHANNELS,,,,,,,,,,,,,,
1771010327,GPS_RAW_INT,,,,,,,,,,,,,,
1771010327,ATTITUDE,,,,,,,,,0.00175933,-0.011316426,2.567788839,,,
1771010327,ATTITUDE_QUATERNION,,,,,,,,,,,,,,
1771010327,HEARTBEAT,,,,,,,,,,,,,,
1771010327,ATTITUDE,,,,,,,,,0.003483304,-0.013183844,2.818736315,,,
1771010327,MISSION_CURRENT,,,,,,,,,,,,,,
1771010327,ATTITUDE_QUATERNION,,,,,,,,,,,,,,
1771010327,VFR_HUD,,,,,,,,,,,,,,
1771010327,ATTITUDE,,,,,,,,,0.004606829,-0.014691718,2.848441839,,,
1771010327,ATTITUDE_TARGET,,,,,,,,,,,,,,
1771010327,RC_CHANNELS,,,,,,,,,,,,,,
1771010327,GPS_RAW_INT,,,,,,,,,,,,,,
1771010327,ATTITUDE,,,,,,,,,0.004385664,-0.014670658,2.848490477,,,
1771010327,ATTITUDE_QUATERNION,,,,,,,,,,,,,,
1771010327,ATTITUDE,,,,,,,,,0.004558828,-0.014877457,2.848234653,,,
1771010328,GPS_STATUS,,,,,,,,,,,,,,
1771010328,ATTITUDE_QUATERNION,,,,,,,,,,,,,,
1771010328,HEARTBEAT,,,,,,,,,,,,,,
1771010328,PING,,,,,,,,,,,,,,
1771010328,ATTITUDE,,,,,,,,,0.004628136,-0.015076948,2.848046303,,,
1771010328,VFR_HUD,,,,,,,,,,,,,,
1771010328,RC_CHANNELS,,,,,,,,,,,,,,
1771010328,MISSION_CURRENT,,,,,,,,,,,,,,
1771010328,GPS_RAW_INT,,,,,,,,,,,,,,
1771010328,ATTITUDE,,,,,,,,,0.004769365,-0.015238273,2.847910166,,,
1771010328,ATTITUDE_QUATERNION,,,,,,,,,,,,,,
1771010328,ATTITUDE,,,,,,,,,0.00495716,-0.015442604,2.847745657,,,
1771010328,ATTITUDE_QUATERNION,,,,,,,,,,,,,,
1771010328,ATTITUDE,,,,,,,,,0.005185652,-0.015632778,2.847509623,,,
1771010329,RC_CHANNELS,,,,,,,,,,,,,,
1771010329,GPS_RAW_INT,,,,,,,,,,,,,,
1771010329,HEARTBEAT,,,,,,,,,,,,,,
1771010329,ATTITUDE,,,,,,,,,0.005354026,-0.015827611,2.847239494,,,
1771010329,ATTITUDE_QUATERNION,,,,,,,,,,,,,,
1771010329,VFR_HUD,,,,,,,,,,,,,,
1771010329,ATTITUDE_TARGET,,,,,,,,,,,,,,
1771010329,MISSION_CURRENT,,,,,,,,,,,,,,
1771010329,ATTITUDE,,,,,,,,,0.005496258,-0.016009923,2.847049236,,,
1771010329,ALTITUDE,,,,,,,,586.4813232,,,,,,
1771010329,EXTENDED_SYS_STATE,,,,,,,,,,,,,,
1771010329,LOCAL_POSITION_NED,,,,,,,,,,,,,,
1771010329,SCALED_PRESSURE,,,,,,,,,,,,,,
1771010329,SERVO_OUTPUT_RAW,,,,0,0,0,0,,,,,,,
1771010329,SYS_STATUS,,,,,,,,,,,,,,
1771010329,UNKNOWN_8,,,,,,,,,,,,,,
1771010329,ATTITUDE_QUATERNION,,,,,,,,,,,,,,
1771010329,ATTITUDE,,,,,,,,,0.005711786,-0.016190367,2.846894026,,,
1771010329,RC_CHANNELS,,,,,,,,,,,,,,
1771010329,GPS_RAW_INT,,,,,,,,,,,,,,
1771010329,ATTITUDE,,,,,,,,,0.005849974,-0.016360229,2.846737623,,,
